id,type,address,number,postal_code,municipality,province,location,public,available,hours,latitude,longitude
13.0,,Blvd. Fr. Roosevelt,24.0,7060.0,SOIGNIES,Hainaut,,Y,,,50.576959606529,4.06558136645
70.0,,Ch. De Wégimont,76.0,4630.0,Ayeneux,Liège,,,,,50.612603901239,5.737663510133
71.0,,Place Saint - Lambert,,4020.0,Liège,Liège,,,,,50.64463567677,5.573312045084
72.0,,Rue du Doyard,,4990.0,Lierneux,Liège,,,,,50.285337850821,5.784182819722
73.0,,Fond Saint Servais,,4000.0,Liège,Liège,,,,,50.646548910056,5.570094517348
74.0,,Rue des Prémontrès,12.0,4020.0,Liège,Liège,,,,,50.638025752566,5.573909872013
75.0,,Route de Bastogne,1.0,4920.0,Harzé,Liège,,,,,50.441128812004,5.665931601853
76.0,,Rue du Parc,1.0,4540.0,Jehay,Liège,,,,,50.577355693363,5.32325433815
77.0,,Blvd. De la Constitution,19.0,4020.0,Liège,Liège,,,,,50.643339753451,5.583385781191
78.0,,Place de la République française ,,4000.0,Liège,Liège,,,,,50.643487464003,5.571847232709
79.0,,Rue Darchis,33.0,4020.0,Liège,Liège,,,,,50.637001483998,5.565330658837
86.0,,Schumanplein,11.0,1040.0,Brussel,Bruxelles-Brussel,,,,,50.84282175677,4.3843080962
87.0,,Uitbreidingstraat,,2600.0,Berchem,Antwerpen,,,,,51.196407547777,4.428851307749
95.0,,Peperstraat,2.0,3300.0,TIENEN,Vlaams-Brabant,,Y,,,50.806808135467,4.937338945215
96.0,,Graafschap - Jettelaan,2.0,1090.0,Brussel,Bruxelles-Brussel,,,,,50.88380561717,4.333138840428
97.0,,Sint-Pieterskerstraat,,1090.0,Brussel,Bruxelles-Brussel,,,,,50.880261507803,4.325274011838
98.0,,Wemmelsestweg,100.0,1090.0,Brussel,Bruxelles-Brussel,,,,,50.875803875213,4.3242282068
100.0,,Rue Pietro Ferrero,5.0,6700.0,ARLON,Luxembourg,,N,,,49.673616839421,5.820472438736
101.0,,Tweestationsstraat,80.0,1070.0,Brussel,Bruxelles-Brussel,,,,,50.832211734183,4.328102741543
102.0,,Nieuwe Weg ,1.0,2070.0,ZWIJNDRECHT,Antwerpen,,Y,,,51.237047473545,4.319297216981
111.0,,Hermeslaan,2.0,1831.0,MachelenBt),Vlaams-Brabant,,,,,50.880960254409,4.442905310748
115.0,,Gemeenteplein,1.0,3798.0,Voeren  s Gravenvoeren,Limburg,,Y,,,50.759712588396,5.759799613506
116.0,,Remersdaal-Dorp,1.0,3791.0,Remersdaal,Limburg,,,,,50.731175560845,5.880950803813
117.0,,Sint-Pieterstraat ,20.0,3792.0,Sint-Pieters-Voeren,Limburg,,Y,,,50.737456414261,5.823393699631
118.0,,Kerkplein,1.0,3790.0,Moelingen,Limburg,,Y,,,50.756757422703,5.710434394754
119.0,,Gieveldstraat,,3793.0,Teuven,Limburg,,Y,,,50.759106625228,5.882885002063
120.0,,Kerkstraat,1.0,3790.0,VOEREN,Limburg,,Y,,,50.749407792813,5.812543745065
167.0,,Vanhalstraat,1.0,1500.0,Halle,Vlaams-Brabant,,y,,,50.751339109033,4.255997251838
170.0,,Brikkenovenstraat,48.0,3600.0,Genk,Limburg,,N,,,50.979566807383,5.47245766291
214.0,,Rue de l église,,1150.0,Bruxelles,Bruxelles-Brussel,,,,,50.863425599054,4.293739185882
218.0,,Cours des mineurs,,4000.0,Liège,Liège,,,,,50.647185127355,5.576029020746
219.0,,Rue des Croisiers,15.0,4000.0,Liège,Liège,,,,,50.638900907076,5.575347871322
220.0,,Rue de l école technique ,,4040.0,Herstal,Liège,,,,,50.671563408014,5.640309995289
221.0,,Rue de Wallonie,30.0,4460.0,Bierset,Liège,,,,,50.657810145364,5.493486097778
222.0,,Rue Paul d Andrimont,24.0,4630.0,Micheroux,Liège,,,,,50.624248711683,5.711531669698
223.0,,Bd. Léon Philippet,83.0,4000.0,Liège,Liège,,,,,50.653103497183,5.557508918251
224.0,,Rue du Commerce,14.0,4100.0,Seraing,Liège,,,,,50.612906278396,5.507621004017
225.0,,Rue Peetermans,80.0,4100.0,Seraing,Liège,,,,,50.611295904141,5.510351267285
226.0,,Rue J. Stassart,15.0,4367.0,Crisnée,Liège,,,,,50.708203362631,5.392247962482
227.0,,Route de Dinant,119.0,4020.0,Liège,Liège,,,,,50.504341253206,5.388789628432
228.0,,Rue de Huy,123.0,4300.0,Waremme,Liège,,,,,50.68791186469,5.252769992339
229.0,,Rue de Sélys,35.0,4300.0,Waremme,Liège,,,,,50.69385066,5.266924524
230.0,,Rue St. Pierre,48.0,4500.0,Huy,Liège,,,,,50.523039368225,5.236313634196
231.0,,Avenue Delchambre,6.0,4500.0,Huy,Liège,,,,,50.521875373331,5.241649553758
232.0,,Rue Lambert Marlet,23.0,4020.0,Liège,Liège,,,,,50.687186033785,5.723896317987
233.0,,Rue Aux Laines,69.0,4800.0,Verviers,Liège,,,,,50.590224806494,5.853031019612
234.0,,Rue av. Peltzer,40.0,4020.0,Liège,Liège,,,,,50.582713196325,5.853732920184
235.0,,Route du Canada,157.0,4910.0,La Reid,Liège,,,,,50.48793867016,5.807384469005
238.0,,Route de Botrange,131.0,4950.0,Robertville,Liège,,,,,50.49346470297,6.099577995995
239.0,,Grand Route,317.0,4400.0,,Liège,,,,,39.331760085415,-80.018879174544
240.0,,Avenue Montesquieu,6.0,4101.0,Jemeppe-sur-Meuse,Liège,,,,,50.618751458019,5.515316386396
242.0,,Rue Grand Puits,,4040.0,Herstal,Liège,,,,,50.671357871001,5.639179354558
259.0,,Rue de la Bouviere,1.0,4190.0,Vieuxville,Liège,,,,,50.394683638771,5.54971182046
275.0,,Da Vincilaan,,1930.0,Zaventem,Vlaams-Brabant,,,,,50.888020606456,4.458617859213
277.0,Appareil Mobile- Mobiel apparaat,Adriaan Brouwerstraat,24.0,2000.0,Antwerpen,Antwerpen,,,,,51.227422534128,4.404416281918
282.0,,Kempenarestraat,53.0,2860.0,Sint-Katelijne-Waver,Antwerpen,,Y,,,51.063036690961,4.520250663404
310.0,,Koninginnelaan,1.0,8400.0,Oostende,West-Vlaanderen,,,,,51.226321780694,2.905289345842
311.0,,Northlaan,13.0,8400.0,Oostende,West-Vlaanderen,,,,,51.217647810102,2.888233597804
312.0,,Kursaal - Oosthelling,12.0,8400.0,Oostende,West-Vlaanderen,,,,,51.232108479008,2.912339113146
313.0,,Leopold Van Tyghemlaan,62.0,8400.0,Oostende,West-Vlaanderen,,,,,51.216800022506,2.887429521832
315.0,,Wetstraat,23.0,1040.0,Brussel,Bruxelles-Brussel,,,,,50.845148531182,4.369830621579
316.0,,Grotesteenweg - Noord,9.0,9052.0,Gent,Oost-Vlaanderen,,,,,51.010075593838,3.701759829978
317.0,,Kunstlaan,16.0,3500.0,Hasselt,Limburg,,,,,50.927196382977,5.34709775138
318.0,,Interleuvenlaan ,58.0,3001.0,Leuven,Vlaams-Brabant,,,,,50.848379503399,4.737654349179
319.0,,Sint-Katelijnestraat ,154.0,2800.0,Mechelen,Antwerpen,,,,,51.034058314298,4.475598924083
320.0,,Hof ter Weze,1.0,8800.0,Roeselare,West-Vlaanderen,,,,,50.923619741073,3.118240313194
321.0,,Patersstraat,100.0,2300.0,Turnhout,Antwerpen,,,,,51.327012996807,4.950005675177
323.0,,Interleuven,58.0,3001.0,Leuven,Vlaams-Brabant,,,,,50.848379503399,4.737654349179
328.0,, Ingelmunstersteenweg,11.0,8760.0,Meulebeke,West-Vlaanderen,,,,,50.944444621422,3.278683686293
335.0,,Chaussée de Haecht,1405.0,1130.0,Bruxelles,Bruxelles-Brussel,,,,,50.883872379029,4.419449644359
341.0,,Avenue du Bois St. Jean,21.0,4000.0,Liège,Liège,,,,,50.579218403706,5.554647336507
344.0,,Keienpoelweg,6.0,3300.0,Tienen,Vlaams-Brabant,,Y,,,50.794808287544,4.985907126677
346.0,,Avenue de Gaulle,2.0,7500.0,Tournai,Hainaut,,Y,,,50.605949015847,3.378442252954
349.0,,Haven 1968 Sint Annalaan ,1.0,9130.0,Kallo,Oost-Vlaanderen,,Y,,,51.286180178302,4.288339328155
354.0,,Bld Leopold II,44.0,1080.0,Bruxelles,Bruxelles-Brussel,,,,,50.859250370813,4.343197710972
355.0,,Adolphe Lavallée,1.0,1080.0,Bruxelles,Bruxelles-Brussel,,,,,50.858417335366,4.344578713339
356.0,,Bld. Du jardin Botanique,,1000.0,Bruxelles,Bruxelles-Brussel,,,,,50.854407557433,4.360926152528
357.0,,Ch. St - Joseph,4.0,1440.0,Braine-le-Château,Brabant Wallon,,,,,50.670703733652,4.306796530405
358.0,,Rue des boignées,13.0,1440.0,Wauthier-Braine,Brabant Wallon,,,,,50.672176936954,4.304066628359
359.0,,Rue de l institut,8.0,6040.0,Jumet,Hainaut,,,,,50.44371240793,4.409504851517
360.0,,Rue de Bricgniot,196.0,5002.0,Saint-Servais,Namur,,,,,50.483698193209,4.830353923529
361.0,,Rue sur les bois,113.0,4870.0,Fraipont,Liège,,,,,50.553682935682,5.745560855486
362.0,,Rue de l Hydrion 108l,108.0,6700.0,Arlon,Luxembourg,,,,,49.68370902803,5.794424836428
364.0,,Place des Sports,3.0,1348.0,Louvain-la-Neuve,Brabant Wallon,,,,,50.669830884165,4.603511292768
365.0,,Rue de la Marlette,3.0,7180.0,Seneffe,Hainaut,,,,,50.509333657338,4.272696014621
366.0,,Av. de la Sapinette,3.0,7000.0,Mons,Hainaut,,,,,50.467550121465,3.940401162924
367.0,,Av. du Lac ,56.0,7640.0,Antoing,Hainaut,,,,,50.542710506937,3.447408360368
368.0,,Av. Amédée Hesse,41.0,4900.0,Spa,Liège,,,,,50.498666910955,5.884357472467
369.0,,Ile de Campana,,4030.0,Grivegnée,Liège,,,,,50.62148,5.61101
370.0,,Allée des Sports,63.0,4000.0,Liège,Liège,,,,,50.590867572739,5.88743504411
371.0,,Allée du Stade,3.0,5100.0,Jambes,Namur,,,,,50.475164619496,4.837677527609
372.0,,Rue Chéravoie,2.0,6840.0,Neufchâteau,Luxembourg,,,,,50.725643546658,5.738773860847
373.0,,Site de l Eau d Heure,4.0,6440.0,Froidchapelle,Hainaut,,,,,50.2285575,4.3712297
374.0,,Allée des Sports,12.0,6280.0,Loverval,Hainaut,,,,,50.37218349291,4.473341767042
375.0,,Rue du Liry,21.0,6810.0,Chiny,Luxembourg,,,,,49.737202334095,5.346085133658
376.0,,Chée de Wavre,2057.0,1160.0,Bruxelles,Bruxelles-Brussel,,,,,50.809339993079,4.44379245138
377.0,,Av. Mounier,87.0,1200.0,Bruxelles,Bruxelles-Brussel,,,,,50.850589811267,4.458311248784
378.0,,Rue des Grives,53.0,1070.0,Bruxelles,Bruxelles-Brussel,,,,,50.815640124872,4.298809750145
379.0,,Omer Vanaudenhovelaan,48.0,3290.0,Diest,Vlaams-Brabant,,Y,,,50.984068727579,5.063812222827
380.0,,Fabriekstraat,,3980.0,Tessenderlo,Limburg,,,,,51.061290998332,5.110038188987
381.0,,Pastorijstraat ,118.0,3300.0,Tienen,Vlaams-Brabant,,Y,,,50.803702283094,4.95553194776
383.0,,Brand Whitlocklaan,165.0,1200.0,Brussel,Bruxelles-Brussel,,,,,50.844483971989,4.404465399871
384.0,,Gobelinstraat,3.0,9700.0,Oudenaarde,Oost-Vlaanderen,,,,,50.848032031603,3.603409930879
385.0,,Kolonel Begaultlaan ,15.0,3012.0,Wilsele,Vlaams-Brabant,,,,,50.89169110213,4.705888947801
387.0,,Beeldhouwkunstlaan,,1700.0,Dilbeek,Vlaams-Brabant,,N,,,50.842104196258,4.279675503768
389.0,,Kapelstraat,100.0,9100.0,Sint-Niklaas,Oost-Vlaanderen,,Y,,,51.153155393504,4.153508033675
390.0,,Vierwegstraat,194.0,8800.0,Roeselare,West-Vlaanderen,,,,,50.951322685439,3.154035398343
396.0,,Paderstraat ,158.0,8620.0,Nieuwpoort,West-Vlaanderen,,,,,51.132226368008,2.712056638073
398.0,,Haarlebeek,3.0,2275.0,Lille,Antwerpen,,,,,51.281257528477,4.831567036375
399.0,,Pedro Colomalaan,25.0,2880.0,Bornem,Antwerpen,,,,,51.087073013693,4.263420181472
403.0,,Parc Industriel Zone A,,7011.0,Ghlin,Hainaut,,,,,50.4745948,3.8927593
404.0,,Wiemesmeerstraat ,105.0,3600.0,Genk,Limburg,,Y,,,50.969890151625,5.556243418509
407.0,,Schurhovenveld ,4820.0,3800.0,Sint-Truiden,Limburg,,,,,50.821099025312,5.208716487766
409.0,,Vlasland,4.0,2260.0,Westerlo,Antwerpen,,Y,,,51.095797988165,4.871728590164
411.0,,Vlieghavenlaan,50.0,3140.0,Keerbergen,Vlaams-Brabant,,,,,51.002996238416,4.668835990442
414.0,,Slachthuislaan,74.0,2060.0,Antwerpen,Antwerpen,,,,,51.228866652226,4.437921766396
415.0,,Elzen,145.0,3920.0,Lommel,Limburg,,,,,51.25713168702,5.320377585162
417.0,,Arianelaan,5.0,1200.0,Brussel,Bruxelles-Brussel,,,,,50.857194918607,4.430175630576
418.0,,Stift,2.0,3960.0,Bree,Limburg,,,,,51.143067647304,5.594864127038
419.0,,Katjeswilgenlaan ,,3010.0,Kessel-Lo,Vlaams-Brabant,,N,,,50.893604917465,4.71820965516
420.0,,Weerstandlaan,24.0,2660.0,Hoboken,Antwerpen,,,,,51.186466040642,4.371610686356
421.0,,Citadelpark ,,9000.0,Gent,Oost-Vlaanderen,,,,,51.036883060113,3.720334994826
422.0,,Citadelpark ,,9000.0,Gent,Oost-Vlaanderen,,,,,51.036883060113,3.720334994826
423.0,,Citadelpark ,,9000.0,Gent,Oost-Vlaanderen,,,,,51.036883060113,3.720334994826
424.0,,Citadelpark ,,9000.0,Gent,Oost-Vlaanderen,,,,,51.036883060113,3.720334994826
425.0,,Citadelpark ,,9000.0,Gent,Oost-Vlaanderen,,,,,51.036883060113,3.720334994826
427.0,,Tervuursevest,101.0,3001.0,Heverlee,Vlaams-Brabant,,,,,50.869485889966,4.693205619554
428.0,,Speiestraat,32.0,8940.0,Wervik,West-Vlaanderen,,N,,,50.778762056445,3.045965567975
429.0,,Place des sports,1.0,1348.0,Louvain-la-Neuve,Brabant Wallon,,Y,,,50.670098644062,4.59994194312
430.0,,Rue du Castinia,,1348.0,Louvain-la-Neuve,Brabant Wallon,,,,,50.670398471798,4.605069653397
431.0,,Liersestwg.,4.0,2800.0,Mechelen,Antwerpen,,,,,51.035486171504,4.484133377897
434.0,,Route St - Hubert,1.0,6800.0,Recogne,Luxembourg,,,,,49.926898800734,5.35302853461
436.0,,Vaartstraat,60.0,8710.0,Wielsbeke,West-Vlaanderen,,,,,50.903851734895,3.336651000817
437.0,,Ooigemstraat,12.0,8710.0,Wielsbeke,West-Vlaanderen,,,,,50.902697169642,3.363578032406
438.0,,Westerring,15.0,9700.0,Oudenaarde,Oost-Vlaanderen,,,,,50.859759990526,3.59701420348
445.0,,Nazarethsesteenweg,77.0,9800.0,Astene,Oost-Vlaanderen,,N,,,50.975255491666,3.5691808367
450.0,,Lamorinierestraat,,2018.0,Antwerpen,Antwerpen,,Y,,,51.203291521709,4.420404464815
451.0,,Riderveldlaan,5.0,2018.0,Antwerpen,Antwerpen,,Y,,,51.189904590691,4.439297069069
452.0,,Nijverheidslaan,7.0,3200.0,Aarschot,Vlaams-Brabant,,,,,50.992308976591,4.824799320113
453.0,,Nijverheidslaan,7.0,3200.0,Aarschot,Vlaams-Brabant,,,,,50.992308976591,4.824799320113
454.0,,Nijverheidslaan,,3200.0,Aarschot,Vlaams-Brabant,,,,,50.990658896818,4.822740592826
455.0,,Schaliehoevestraat ,12.0,2220.0,Heist-Op-Den-Berg,Antwerpen,,,,,51.05597372216,4.701221485017
456.0,,Nijverheidslaan,7.0,3200.0,Aarschot,Vlaams-Brabant,,,,,50.992308976591,4.824799320113
457.0,,Cipaalstraat ,8.0,2440.0,Geel,Antwerpen,,,,,51.153200236686,4.998887174297
458.0,,Erperheidestraat,2.0,3990.0,Peer,Limburg,,Y,,,51.128550819647,5.504264806166
459.0,,Koldamstraat,9.0,1560.0,Hoeilaart,Vlaams-Brabant,,,,,50.768502648346,4.477120490967
460.0,,Nekkerspoelstraat,199.0,2800.0,Mechelen,Antwerpen,,,,,51.03206710938,4.497920854249
461.0,,Kruisstraat,54.0,3120.0,Tremelo,Vlaams-Brabant,,,,,50.99459530832,4.700436855061
466.0,,Av. de Burlet,4.0,1400.0,Nivelles,Brabant Wallon,,,,,50.601780601126,4.334089348248
468.0,,Zeypestraat,26.0,1910.0,Kampenhout,Vlaams-Brabant,,Y,,,50.946519142458,4.563041201124
469.0,,Bergtorfbroeklaan,,1910.0,Kampenhout,Vlaams-Brabant,,Y,,,50.930600893358,4.536353630972
470.0,,Kerkstraat,34.0,1910.0,Kampenhout,Vlaams-Brabant,,Y,,,50.941281333073,4.54807564828
471.0,,Steenweg op Zevendonk ,18.0,2300.0,Turnhout,Antwerpen,,Y,,,51.308489200337,4.947981864655
472.0,,Uilenbaan,15.0,2160.0,Wommelgem,Antwerpen,,,,,51.21314383634,4.502489410575
473.0,,Reep,1.0,9000.0,Gent,Oost-Vlaanderen,,Y,,,51.051905523544,3.729223973923
474.0,,Vlamingenstraat,83.0,3000.0,Leuven,Vlaams-Brabant,,Y,,,50.874268771556,4.701824982046
475.0,,Steenweg op Tielen ,51.0,2300.0,Turnhout,Antwerpen,,Y,,,51.301931534569,4.93508714481
476.0,,Cathilleweg t,38.0,8490.0,Jabbeke,West-Vlaanderen,,,,,51.210583793563,3.07553493561
477.0,,Sarkoheemstraa,2.0,8490.0,Jabbeke,West-Vlaanderen,,,,,51.188621108,3.096354984
478.0,,Oude Dorpweg,58.0,8490.0,Jabbeke,West-Vlaanderen,,,,,51.190145151313,3.143288541186
479.0,,Eernegemweg  ,,8490.0,Jabbeke,West-Vlaanderen,,,,,51.161242018779,3.097254656913
480.0,,Dorpsstraat,,8490.0,Jabbeke,West-Vlaanderen,,,,,51.181114720521,3.087175893509
485.0,,Parklaan ,,2300.0,Turnhout,Antwerpen,,N,,,51.312391162556,4.949266748606
488.0,,Motstraat,32.0,2800.0,Mechelen,Antwerpen,,,,,51.013516700367,4.489499639948
489.0,,Zeutestraat ,5.0,2800.0,Mechelen,Antwerpen,,,,,51.010263683745,4.492217555871
490.0,,Rue de Chassart,38.0,1495.0,Marbais,Brabant Wallon,,,,,50.526941473752,4.518113539596
491.0,,Squaire Marie-Curie,40.0,1070.0,Bruxelles,Bruxelles-Brussel,,,,,50.821915488142,4.285832971468
492.0,,Rue Osseghem,53.0,1080.0,Bruxelles,Bruxelles-Brussel,,,,,50.855187243249,4.320076566339
493.0,,Industriepark Nederwest Oost,,9400.0,Meerbeke,Oost-Vlaanderen,,,,,51.203824454178,3.940084510376
494.0,,Broekaai ,13.0,1731.0,Zellik,Vlaams-Brabant,,,,,50.895847118615,4.255401435009
495.0,,AVenue Herman Debroux,42.0,1160.0,Bruxelles,Bruxelles-Brussel,,,,,50.864874269674,4.377612022275
496.0,,Rue des Pieds d Alouettes,12.0,5100.0,Naninne,Namur,,,,,50.424260148045,4.927438574344
498.0,,Laarstraat,16.0,2610.0,Wilrijk,Antwerpen,,,,,51.174042090389,4.395651577225
500.0,,Route de Glons,1.0,4452.0,Paifve,Liège,,,,,50.732079926288,5.525299778918
507.0,,Boomsestwg,957.0,,,,,,,,43.499484,-87.848432
509.0,,Nieuwevaart,51.0,9000.0,Gent,Oost-Vlaanderen,,N,,,51.068067551157,3.722592379769
510.0,,Allée du Bol d Air,13.0,4317.0,Angleur,Liège,,,,,50.57659071897,5.54992731919
517.0,,Nijverheidsstraat,7.0,2260.0,Westerlo,Antwerpen,,Y,,,51.133907610147,4.932083154531
518.0,,Boomsestweg,957.0,2610.0,Wilrijk,Antwerpen,,,,,51.150527163944,4.382389478564
519.0,,Ingberthoeveweg ,7.0,2630.0,Aartselaar,Antwerpen,,,,,51.149237105227,4.399494512193
520.0,,Boomsestwg.,957.0,2610.0,Wilrijk,Antwerpen,,,,,51.150527163944,4.382389478564
521.0,,Boomsestwg. ,957.0,2610.0,Wilrijk,Antwerpen,,,,,51.150527163944,4.382389478564
525.0,,Weg nr. Bre,2.0,3660.0,Opglabbeek,Limburg,,,,,51.04258,5.58346
526.0,,Klaproosstraat ,12.0,2340.0,Beerse,Antwerpen,,,,,51.326032607502,4.86597131233
530.0,,Herbesthalerstrasse,325.0,4700.0,Eupen,Liège,,,,,50.648423503455,6.004072076643
531.0,,Bld. Du Souverain,25.0,1170.0,Bruxelles,Bruxelles-Brussel,,,,,50.802835049482,4.426086938207
532.0,,Grotesteenweg,214.0,2600.0,Berchem,Antwerpen,,,,,51.193278348629,4.422495544153
533.0,,Rue du Trône ,1.0,1000.0,Bruxelles,Bruxelles-Brussel,,,,,50.839458895307,4.365878470412
534.0,,Av. Marcel Thiry,208.0,1200.0,Bruxelles,Bruxelles-Brussel,,,,,50.857727840011,4.432870915361
535.0,,Site Philips - Ubicenter,208.0,3000.0,Leuven,Vlaams-Brabant,,,,,50.8672147,4.7116484
536.0,,Grote Steenweg ,214.0,2600.0,Berchem,Antwerpen,,,,,51.193278348629,4.422495544153
537.0,,Oktrooiplein ,1.0,9000.0,Gent,Oost-Vlaanderen,,,,,51.057633883812,3.739527009306
538.0,,Rue Joffre ,12.0,4000.0,Liège,Liège,,,,,50.64421239339,5.571677016826
539.0,,Blvd. Audent,,4000.0,Liège,Liège,,,,,50.63176777,5.59046281
540.0,,Rue d Othée,214.0,4432.0,Alleur,Liège,,,,,50.668887291415,5.527899677645
542.0,,Ch. de mariemon,100.0,7140.0,Morlanwelz,Hainaut,,,,,50.469853258911,4.23325832199
543.0,,Rue Ducale,1.0,1000.0,Bruxelles,Bruxelles-Brussel,,,,,50.842173793745,4.365446886218
545.0,,Av. de la Couronne,6.0,1050.0,Bruxelles,Bruxelles-Brussel,,,,,50.832714355007,4.375561161142
550.0,,Leuvensesteenweg ,5.0,3080.0,Tervuren,Vlaams-Brabant,,,,,50.824855370765,4.513156530582
564.0,,Boechhoutlaan,55.0,1853.0,Strombeek-Bever,Vlaams-Brabant,U gebouw achteraan onze site – koffie area – re tegen de muur,,,,50.904027377676,4.344270091664
565.0,,Temselaan,100.0,1853.0,Strombeek-Bever,Vlaams-Brabant,,,,,50.905222930436,4.340943733389
566.0,,Rue Maestricht,,4651.0,Battice,Liège,,,,,50.658581571549,5.789675924768
568.0,,Nijverheidsstraat,9.0,2260.0,OEVEL,Antwerpen,,Y,,,51.134282155491,4.930505764173
569.0,,Lieven Bauwensstraa,16.0,8200.0,Brugge,West-Vlaanderen,,,,,51.2143824,3.1966327
570.0,,Wilrijkstraat,8.0,2650.0,Edegem,Antwerpen,,,,,51.159177198277,4.412487480102
571.0,,Schiepse Bo,4.0,3600.0,Genk,Limburg,,,,,50.958029643384,5.519297510796
572.0,,Boomkensstraat,303.0,3500.0,Hasselt,Limburg,,,,,50.918511306363,5.325716438389
573.0,,Grote Markt,,8900.0,Ieper,West-Vlaanderen,,,,,50.851137711672,2.887014055143
574.0,,Leopold III-laan,,8900.0,Ieper,West-Vlaanderen,,,,,50.845923761479,2.893656847514
575.0,,Laarbeeklaan,105.0,1090.0,Brussel,Bruxelles-Brussel,,,,,50.886085033829,4.305792378404
576.0,,Herestraat,19.0,3000.0,Leuven,Vlaams-Brabant,,,,,50.877892603575,4.682354826798
577.0,,Motstraat,40.0,2800.0,Mechelen,Antwerpen,,,,,51.013630610431,4.490845270683
578.0,,Dirk Martensstraat,11.0,8200.0,Sint-Andries,West-Vlaanderen,,,,,51.210793341143,3.197466062008
580.0,,A. Van Dijckstraat,10.0,2300.0,Turnhout,Antwerpen,,,,,51.314471825638,4.938426327397
581.0,,Rue De La Carbo,,7333.0,Tertre,Hainaut,,,,,50.47775042064,3.80630165541
582.0,,Rue De La Carbo,,7333.0,Tertre,Hainaut,,,,,50.47775042064,3.80630165541
583.0,,Chaussée du Tubize ,297.0,1420.0,Braine-l Alleud,Brabant Wallon,,,,,50.695639266956,4.343643795859
585.0,,Boulevard Industriel,96.0,7700.0,Mouscron,Hainaut,,,,,50.748869842267,3.248042633407
586.0,,Rue de l Industrie,44.0,1040.0,Bruxelles,Bruxelles-Brussel,,,,,50.844118898196,4.370606282899
587.0,,Rue Royale ,100.0,1000.0,Bruxelles,Bruxelles-Brussel,,,,,50.848075533681,4.362824691629
588.0,,Rue de la Papeterie,,6760.0,Virton,Luxembourg,,,,,49.554577694931,5.508262183872
592.0,,Avenue de la Joyeuse Entrée,,1040.0,Bruxelles,Bruxelles-Brussel,,Y,,,50.841077983813,4.385666622972
594.0,,Dorpsstraat,15.0,3910.0,Neerpelt,Limburg,,,,,51.214713766805,5.425648254075
595.0,,Toekomstlaan,,3910.0,Neerpelt,Limburg,,,,,51.231945630899,5.424885412706
596.0,,Grote Heide ,14.0,3910.0,Neerpelt,Limburg,,,,,51.247156090684,5.439406142309
597.0,,Herent,139.0,3910.0,Neerpelt,Limburg,,,,,51.202842351609,5.449214813043
601.0,,Rue de Trèves ,82.0,1040.0,Bruxelles,Bruxelles-Brussel,,,,,50.841905489025,4.374497329991
605.0,,Av. Salomé,2.0,1150.0,Bruxelles,Bruxelles-Brussel,,Y,,,50.830840915828,4.455296194393
606.0,,Groot Begijnhof,14.0,3000.0,Leuven,Vlaams-Brabant,,Y,,,50.871142279762,4.696401555415
607.0,,Ottergemsesteenweg,413.0,9000.0,Gent,Oost-Vlaanderen,,,,,51.026283302822,3.733873080338
608.0,,Albrechtlaan,117.0,9300.0,Aalst,Oost-Vlaanderen,,,,,50.940294028698,4.054547093834
609.0,,Zone Industrielle C ,,7181.0,Feluy,Hainaut,,,,,50.56258,4.25098
610.0,,Rue de l Industrie ,4.0,1400.0,Nivelles,Brabant Wallon,,,,,50.594696677567,4.356294015588
612.0,,St. Pietersnieuwstraat ,23.0,9000.0,Gent,Oost-Vlaanderen,,Y,,,51.047708495077,3.727404681839
613.0,,St. Pietersnieuwstraat ,23.0,9000.0,Gent,Oost-Vlaanderen,,Y,,,51.047708495077,3.727404681839
614.0,,Boulevard de la Woluwe,58.0,1200.0,Bruxelles,Bruxelles-Brussel,,Y,,,50.84102291653,4.436208002472
615.0,,Bomastraat,10.0,9000.0,Gent,Oost-Vlaanderen,,,,,51.061711595888,3.730733470866
616.0,,Belgiëlei,34.0,2018.0,Antwerpen,Antwerpen,,,,,51.20834020954,4.42131595892
617.0,,Havenlaan,7.0,3980.0,Tessenderlo,Limburg,,N,,,51.072671604842,5.17214915956
620.0,,Rue de la Providence ,114.0,6030.0,Marchienne-au-Pont,Hainaut,,Y,,,50.41306297314,4.402117544972
621.0,,Place de l Accueil,10.0,1348.0,Louvain-la-Neuve,Brabant Wallon,,,,,50.6712320031,4.617070446078
623.0,,Weiveldlaan,19.0,1930.0,Zaventem,Vlaams-Brabant,,,,,50.871850005757,4.491928212574
624.0,,Désiré Delcroixstraat,,9800.0,Deinze,Oost-Vlaanderen,,,,,50.985088004611,3.538124896231
627.0,,Rue G. D Orange,168.0,4100.0,Seraing,Liège,,,,,50.602484058932,5.528706957612
629.0,,Onder den toren  ,5.0,2800.0,Mechelen,Antwerpen,,,,,51.028024266021,4.477120155691
630.0,,Quai de Willebroeck,35.0,1000.0,Bruxelles,Bruxelles-Brussel,,Y,,,50.863161199197,4.352267852217
631.0,,Koning Albert I  laan  ,8.0,8200.0,Brugge,West-Vlaanderen,,Y,,,51.196125932595,3.211061508959
632.0,,Boudewijnstraat,4.0,2280.0,Grobbendonk,Antwerpen,,,,,51.190168201546,4.738083167345
633.0,,Molendreef ,8.0,2280.0,Grobbendonk,Antwerpen,,Y,,,51.163815833239,4.745138550524
729.0,,Boulevard Roi Albert II ,,1210.0,Bruxelles,Bruxelles-Brussel,,,,,50.864750571327,4.359124544552
730.0,,Karmelietenstraat,15.0,1000.0,Bruxelles,Bruxelles-Brussel,,,,,50.840329816956,4.358568445015
731.0,,Kleine Zavel ,8.0,1000.0,Brussel,Bruxelles-Brussel,,,,,50.838928153198,4.356917713004
732.0,,Karmelietenstraat,,1000.0,Brussel,Bruxelles-Brussel,,,,,50.839833584242,4.358030079594
733.0,,Place de l Université ,1.0,1348.0,Louvain-la-Neuve,Brabant Wallon,,,,,50.670003680499,4.614768465899
734.0,,Daelemveld ,1002.0,3540.0,Herk-de-Stad,Limburg,,Y,,,50.947274452408,5.169176537484
735.0,,Avenue Charles Thielemans,93.0,1150.0,Bruxelles,Bruxelles-Brussel,,,,,50.837263884413,4.427112212604
739.0,,Kallo 3 ,3.0,9130.0,Kallo,Oost-Vlaanderen,,Y,,,51.216132781103,4.259351438032
740.0,,Nijverheidsstraat,15.0,2260.0,Oevel,Antwerpen,,Y,,,51.13681864512,4.922739260328
741.0,,Nijverheidsstraat,15.0,2260.0,OEVEL,Antwerpen,,Y,,,51.13681864512,4.922739260328
742.0,,Onkerzelestraat,280.0,9500.0,Geraardsbergen,Oost-Vlaanderen,,Y,,,50.791458166573,3.91802030798
744.0,,Parc Industriel,,4300.0,Waremme,Liège,,Y,,,50.689640353904,5.281211402694
745.0,,Chaussée Romaine,176.0,4300.0,WAREMME,Liège,,Y,,,50.692387675258,5.269508233885
746.0,,Stadsplein,1.0,3600.0,Genk,Limburg,,,,,50.965276626388,5.494861819546
747.0,,Markt Z/N ,,3980.0,Tessenderlo,Limburg,,Y,,,51.067862109395,5.088878157642
748.0,,p.a. Markt,21.0,9800.0,Deinze,Oost-Vlaanderen,,,,,50.984212183852,3.527122961137
749.0,,Avenue de l Industrie,1.0,4500.0,Tihange,Liège,,,,,50.532154687928,5.272899216634
750.0,,Avenue de l industrie ,1.0,4500.0,Tihange,Liège,,,,,50.532154687928,5.272899216634
751.0,,Avenue de l Industrie ,1.0,4500.0,Tihange,Liège,,,,,50.532154687928,5.272899216634
752.0,,Av. De L Industrie,1.0,4500.0,Tihange,Liège,,,,,50.532154687928,5.272899216634
753.0,,Avenue de l Industrie ,1.0,4500.0,Tihange,Liège,,,,,50.532154687928,5.272899216634
754.0,,Avenue de l Industrie,1.0,4500.0,Tihange,Liège,,,,,50.532154687928,5.272899216634
755.0,,Avenue de l Industrie,1.0,4500.0,Tihange,Liège,,,,,50.532154687928,5.272899216634
757.0,,Leonardo Da Vincilaan,4.0,1831.0,Diegem,Vlaams-Brabant,,,,,50.891413032492,4.459408607548
758.0,,Chaussée de Mons,,7180.0,Seneffe,Hainaut,,,,,50.52091506733,4.250444368634
759.0,,Waalstraat,18.0,9870.0,Zulte,Oost-Vlaanderen,,,,,50.923133306136,3.447714575745
762.0,,Rue du Travail 63,63.0,7000.0,Mons,Hainaut,,N,,,50.446217015867,3.936994260659
769.0,,Avenue Louise 480 ,480.0,1050.0,Bruxelles,Bruxelles-Brussel,,,,,50.817058594347,4.372193982998
777.0,,Sporthalstraat,12.0,3300.0,Tienen,Vlaams-Brabant,,Y,,,50.819936156374,4.941976463456
778.0,,Reizegersstraat,81.0,3300.0,TIENEN,Vlaams-Brabant,,Y,,,50.802491265723,4.944523826681
779.0,,Rue Laid Burniat,5.0,1348.0,Louvain-la-Neuve,Brabant Wallon,,,,,50.666259480951,4.636893730907
781.0,,Rue du Panorama,57.0,4801.0,Stembert,Liège,,,,,50.588707394847,5.886731797216
782.0,,Rue du Châtelet,266.0,6030.0,MARCHIENNE-AU-PONT,Hainaut,,,,,50.408136216182,4.418207362489
783.0,,Rue du Châtelet ,266.0,6030.0,MARCHIENNE-AU-PONT,Hainaut,,,,,50.408136216182,4.418207362489
784.0,,Koning Albertlaan ,1.0,9840.0,De,Oost-Vlaanderen,,Y,,,51.018414372121,4.556238029411
785.0,,Polderbos ,20.0,9840.0,De,Oost-Vlaanderen,,Y,,,51.2171,4.69357
789.0,,Boulevard Charlemagne ,,1000.0,Bruxelles,Bruxelles-Brussel,,Y,,,50.845226684891,4.382367668519
790.0,,Avenue des Combattants,35.0,1490.0,Court-Saint-Etienne,Brabant Wallon,,,,,50.648802575026,4.563994139696
791.0,,Avenue Einstein,2.0,1300.0,Wavre,Brabant Wallon,,,,,50.731563668555,4.590100857678
792.0,,Rue Armand Dewolf,2.0,1357.0,Hélécine,Brabant Wallon,,,,,50.746459123095,4.979212752068
794.0,,Chaussée de Charleroi ,110.0,1060.0,Bruxelles,Bruxelles-Brussel,,,,,50.827936041554,4.355587840246
795.0,,Rogierplein,11.0,1210.0,Brussel,Bruxelles-Brussel,,,,,50.856252499323,4.359220808539
796.0,,Galileelaan,5.0,1210.0,Brussel,Bruxelles-Brussel,,,,,50.853074165458,4.367497686468
797.0,,Pachecolaan,44.0,1000.0,Brussel,Bruxelles-Brussel,,,,,50.853229985038,4.362451780756
798.0,,Rue de Bois de Four ,,6440.0,Froidchapelle,Hainaut,,,,,50.192362026722,4.353070255694
799.0,,Rue du Stade,,6762.0,Virton,Luxembourg,,Y,,,49.555664068454,5.515249856583
800.0,,A la Cour Marchal,8.0,6760.0,VIRTON,Luxembourg,,Y,,,49.565793503805,5.537247930438
801.0,,Rue Charles Magnette ,17.0,6760.0,VIRTON,Luxembourg,,Y,,,49.566847276672,5.531367941541
802.0,,Rue Bollinckx,352.0,1190.0,Bruxelles,Bruxelles-Brussel,,Y,,,50.809387560379,4.308617834145
803.0,,Rue Neuve,123.0,1000.0,Bruxelles,Bruxelles-Brussel,,,,,50.854428597192,4.35790920833
804.0,,Liersesteenweg,15.0,2640.0,Mortsel,Antwerpen,,,,,51.171030095392,4.460546450904
805.0,,Rue Jean Etienne Lenoir,,1348.0,Louvain-la-Neuve,Brabant Wallon,,,,,50.663824629566,4.626975473566
806.0,,Philipssite,5.0,3001.0,Leuven,Vlaams-Brabant,,,,,50.866961302639,4.713214982633
807.0,,Louizalaan,222.0,1050.0,Brussel,Bruxelles-Brussel,,,,,50.826464933728,4.365287546239
808.0,,Frankrijklei,79.0,2018.0,Antwerpen,Antwerpen,,,,,51.214548727132,4.413693875267
809.0,,Industrieweg,150.0,3583.0,Paal,Limburg,,,,,51.062199171196,5.177654645023
810.0,,St. Cordulastraat,,2900.0,Schoten,Antwerpen,,,,,51.250629295043,4.49900589228
811.0,,Spinnerijstraat,100.0,8530.0,Harelbeke,West-Vlaanderen,,Y,,,50.829977244525,3.299052381562
812.0,M5066A,Marnixlaan,13.0,1000.0,Bruxelles,Bruxelles-Brussel,,Y,,,50.838911263663,4.363563556393
813.0,,Engeland,555.0,1180.0,Bruxelles,Bruxelles-Brussel,,,,,50.778188105104,4.351055493742
814.0,,Havenlaan,,1000.0,Brussel,Bruxelles-Brussel,,Y,,,50.871912660304,4.355907908811
815.0,,Ketenislaan Haven ,1500.0,9130.0,Kallo,Oost-Vlaanderen,,,,,51.2657,4.2761683
822.0,,Neerveldstraat,105.0,1200.0,Bruxelles,Bruxelles-Brussel,,,,,50.852281782242,4.44178490175
823.0,,Hombeeksesteenweg ,323.0,2800.0,Mechelen,Antwerpen,,,,,51.014623111586,4.457304163118
824.0,,Eggestraat,1.0,2800.0,MECHELEN,Antwerpen,,,,,51.015289766255,4.464232895739
828.0,,Rue du Marquis,5.0,6220.0,Fleurus,Hainaut,,,,,50.457230369529,4.531284370129
829.0,,Rue du Marquis,,6220.0,Fleurus,Hainaut,,,,,50.456713840623,4.531528324546
831.0,,Avenue du Général Jadot,11.0,1360.0,Perwez,Brabant Wallon,,Y,,,50.620218524998,4.80650606789
832.0,,Square de Fré ,1.0,1180.0,Bruxelles,Bruxelles-Brussel,,,,,50.805014763402,4.348304385482
833.0,,Rue des Sables ,20.0,1000.0,Bruxelles,Bruxelles-Brussel,,,,,50.85107172879,4.360068721864
834.0,,Bourgetlaan ,42.0,1130.0,Bruxelles,Bruxelles-Brussel,,,,,50.878129727616,4.431895010374
835.0,,Bourgetlaan,42.0,1130.0,Bruxelles,Bruxelles-Brussel,,,,,50.878129727616,4.431895010374
836.0,,Bourgetlaan ,42.0,1130.0,Bruxelles,Bruxelles-Brussel,,,,,50.878129727616,4.431895010374
837.0,,Bourgetlaan ,42.0,1130.0,Bruxelles,Bruxelles-Brussel,,,,,50.878129727616,4.431895010374
838.0,,Mercuriusstraat,27.0,1930.0,Nossegem,Vlaams-Brabant,,,,,50.873579192382,4.502347588773
839.0,,Generaal Lemanstraat,69.0,2018.0,Antwerpen,Antwerpen,,,,,51.19423445392,4.41160958712
840.0,,Quai des Vennes,14.0,4020.0,Liège,Liège,,,,,50.617906544645,5.59010354131
841.0,,Einde Were,106.0,9000.0,Gent,Oost-Vlaanderen,,,,,51.05127566543,3.701869381453
842.0,,Woluwedal,102.0,1200.0,Bruxelles,Bruxelles-Brussel,,,,,50.855454248775,4.444711527063
843.0,,Industriepark,3.0,3290.0,Diest,Vlaams-Brabant,,Y,,,50.965360922062,5.073504847871
844.0,,Zone Industrielle Feluy C ,,7181.0,Seneffe,Hainaut,,,,,50.564888465854,4.251933328031
845.0,,Havenlaan ,12.0,3980.0,Tessenderlo,Limburg,,N,,,51.06452058119,5.161785690655
846.0,Appareil fixe-Vast apparaat,Rue Mondron,40.0,6042.0,Lodelinsart,Hainaut,Salle de contrôle du coater,Non-Nee,Oui-Ja,,50.424690013949,4.443604361472
846.0,,Rue Pige-au-Croly,157.0,6042.0,Charleroi,Hainaut,,N,,,50.423187665187,4.445556999491
847.0,Appareil fixe-Vast apparaat,Rue Mondron ,40.0,6042.0,Lodelinsart,Hainaut,Entrée du hall 2 : VIG,Non-Nee,Oui-Ja,,50.424690013949,4.443604361472
847.0,,Rue Pige-au-Croly,157.0,6042.0,CHARLEROI,Hainaut,,N,,,50.423187665187,4.445556999491
848.0,,Pr. Kennedypark,2.0,8500.0,Kortrijk,West-Vlaanderen,,,,,50.802632961796,3.273164538328
849.0,,Statiestraat,11.0,2560.0,Nijlen,Antwerpen,,,,,51.160530336742,4.668964904113
850.0,,Schoolstraat,30.0,2590.0,Berlaar,Antwerpen,,,,,51.116341488024,4.658026939564
861.0,,Schoonmansveld,28.0,2870.0,Puurs,Antwerpen,,,,,51.066154717033,4.33402078428
862.0,,Avenue Circulaire,3.0,1180.0,Bruxelles,Bruxelles-Brussel,,Y,,,50.798745477013,4.35877841169
863.0,,Rue de l Environnement,8.0,4100.0,Seraing,Liège,,,,,50.615584844852,5.523130746357
864.0,,Kapelledreef ,4.0,9960.0,Assenede,Oost-Vlaanderen,,,,,51.230397858299,3.749499127152
865.0,,Kasteelstraat ,3.0,9960.0,Assenede,Oost-Vlaanderen,,Y,,,51.226198482898,3.753591926654
866.0,,3è Avenue,25.0,4040.0,Herstal,Liège,,N,,,50.681470055,5.6065088
867.0,,Voie de Liège ,33.0,4040.0,Herstal,Liège,,Y,,,50.667808330929,5.629101435481
869.0,,Rue du Clémarais,,6790.0,Aubange,Luxembourg,,,,,49.572077878798,5.797496135845
871.0,,Slakweidestraat,31.0,3630.0,Maasmechelen,Limburg,,,,,50.940399682587,5.701147329854
873.0,,Rue Cardinal Mercier,100.0,7711.0,Dottignies,Hainaut,,Y,,,50.723518608475,3.303920674745
874.0,,Rue Père Damien ,2.0,7700.0,Mouscron,Hainaut,,Y,,,50.747275277035,3.236716109471
875.0,,Rue J. Dechamps ,9.0,1300.0,Wavre,Brabant Wallon,,,,,50.695291878979,4.586922081461
876.0,,Rue J. Dechamps,9.0,1300.0,WAVRE,Brabant Wallon,,,,,50.695291878979,4.586922081461
877.0,,Avenue de la Couronne ,224.0,1050.0,Bruxelles,Bruxelles-Brussel,,,,,50.826966548724,4.382758366122
878.0,,Prinsenstraat ,3.0,1850.0,Grimbergen,Vlaams-Brabant,,,,,50.932093551816,4.37242842483
881.0,,Avenue Bouchout ,10.0,1020.0,Bruxelles,Bruxelles-Brussel,,Y,,,50.893194941288,4.337239854195
882.0,,ZI Avenue de Spirou ,23.0,6220.0,Fleurus,Hainaut,,,,,50.455068503718,4.539386548353
883.0,,Rue des Sols,25.0,1000.0,Bruxelles,Bruxelles-Brussel,,,,,50.843975400014,4.358334757555
885.0,,Gouverneur Bovesse,74.0,5100.0,Jambes,Namur,,,,,50.459306980697,4.875620894542
886.0,,Port de herstal Pré Wigi ,20.0,4040.0,Herstal,Liège,,,,,50.680138194319,5.643933632245
887.0,,Avenue Oscar Jespers,75.0,1200.0,Bruxelles,Bruxelles-Brussel,,Y,,,50.857911613238,4.442762902213
889.0,,Avenue Oscar Jespers,75.0,1200.0,Bruxelles,Bruxelles-Brussel,,N,,,50.857911613238,4.442762902213
891.0,,Avenue Adile ,1.0,1310.0,La hulpe,Brabant Wallon,,,,,50.734369233593,4.478580115586
892.0,,Avenue Solvay ,81.0,1310.0,La hulpe,Brabant Wallon,,,,,50.738588180737,4.473743505997
893.0,,Avenue Solvay ,81.0,1310.0,La hulpe,Brabant Wallon,,Y,,,50.738588180737,4.473743505997
894.0,,Chaussée de Bruxelles ,135.0,1310.0,La hulpe,Brabant Wallon,,,,,50.745385820393,4.455081282395
895.0,,Avenue de l Astronomie,14.0,1210.0,Bruxelles,Bruxelles-Brussel,,,,,50.85132272488,4.369449077346
896.0,,Hoogbul ,1.0,2250.0,Olen,Antwerpen,,Y,,,51.147636035992,4.877555521614
898.0,,Av. Ch. Thielemans ,93.0,1150.0,Bruxelles,Bruxelles-Brussel,,,,,50.837263884413,4.427112212604
938.0,,Rue du Châtelet,206.0,6030.0,MARCHIENNE-AU-PONT,Hainaut,,,,,50.406390433389,4.408116556894
939.0,,Livingstonelaan,6.0,1000.0,Brussel,Bruxelles-Brussel,,,,,50.845123846477,4.377334268939
940.0,,Av. de Tervuren ,2.0,1040.0,Bruxelles,Bruxelles-Brussel,,,,,50.816102009647,4.431121109254
941.0,,Op  t Zand,51.0,3971.0,Leopoldsburg,Limburg,,,,,51.117662569606,5.217152301219
942.0,,Caïmolaan,118.0,3971.0,Leopoldsburg,Limburg,,,,,51.117854840643,5.248127675265
943.0,,De Witteln.,4.0,3971.0,Leopoldsburg,Limburg,,,,,51.114705047158,5.261936357832
944.0,,Groenstraat,5.0,3980.0,Tessenderlo,Limburg,,Y,,,51.074701576063,5.092390237885
946.0,,Villa-Hermosa,1.0,1000.0,Brussel,Bruxelles-Brussel,,Y,,,50.842945431752,4.358913863245
947.0,,Jubelpark,10.0,1000.0,Brussel,Bruxelles-Brussel,,Y,,,50.839350768756,4.391718872074
950.0,,Guido Gezellestraat,1.0,8970.0,Poperinge,West-Vlaanderen,,Y,,,50.855500075875,2.727432919456
951.0,,Ouderdomseweg,3.0,8970.0,Poperinge,West-Vlaanderen,,Y,,,50.847525722742,2.739490188071
952.0,,Havendoklaan,,1800.0,Vilvoorde,Vlaams-Brabant,,,,,50.94378492726,4.438392397017
956.0,,Allée de Clerlande ,6.0,1340.0,Ottignies,Brabant Wallon,,,,,50.680084759686,4.591682164274
957.0,,Rue de la Spinette,37.0,5140.0,Sombreffe,Namur,,Y,,,50.488885627356,4.595059149244
958.0,,Porte De Liège,7.0,4342.0,Hognoul,Liège,,,,,50.678948257435,5.462776061829
959.0,,Broekstraat,31.0,1000.0,Brussel,Bruxelles-Brussel,,,,,50.85083799942,4.358331153336
960.0,,Boulevard de l Empereur ,4.0,1000.0,Bruxelles,Bruxelles-Brussel,,N,,,50.843657893522,4.355343759225
961.0,,Ch. De Charleroi,38.0,1060.0,Bruxelles,Bruxelles-Brussel,,,,,50.83100524304,4.356570953669
962.0,,Rue Du Commerce,8.0,1400.0,Nivelles,Brabant Wallon,,Y,,,50.59114363072,4.364332260734
966.0,,Industriepark,16.0,3300.0,Tienen,Vlaams-Brabant,,,,,50.808468484696,4.96055891037
967.0,,Paaiestraat,17.0,2500.0,Lier,Antwerpen,,,,,51.151672592923,4.553672915582
968.0,,Blookbergstraat,7.0,3690.0,Zutendaal,Limburg,,N,,,50.927505339928,5.573002111899
970.0,,Haachtsesteenweg ,672.0,1910.0,Kampenhout,Vlaams-Brabant,,,,,50.958814849592,4.599195199366
971.0,,Av. De l Enseignement,16.0,7330.0,Saint-Ghislain,Hainaut,,,,,50.445253462738,3.817817756821
972.0,,Pantserschipstraat,108.0,9000.0,Gent,Oost-Vlaanderen,,y,,,51.09721817593,3.728771854066
973.0,,Pantserschipstraat ,108.0,9000.0,Gent,Oost-Vlaanderen,,y,,,51.09721817593,3.728771854066
974.0,,Avenue du Port,57.0,1000.0,Bruxelles,Bruxelles-Brussel,,,,,50.864834520437,4.350596752181
975.0,,Place des Armateurs,6.0,1000.0,Bruxelles,Bruxelles-Brussel,,,,,50.864997758002,4.350973686367
977.0,,Av. des Anciens Combattants,260.0,1140.0,Bruxelles,Bruxelles-Brussel,,,,,50.867467779139,4.407244587507
979.0,,Koning Albert-II laan,19.0,1210.0,Brussel,Bruxelles-Brussel,,,,,50.859138011401,4.357391458171
980.0,,Museumstraat,9.0,1000.0,Brussel,Bruxelles-Brussel,,Y,,,50.842141439599,4.358365100044
981.0,,Nelissenlaan ,13.0,3620.0,Lanaken,Limburg,,Y,,,50.838654190692,5.626569346351
982.0,,Berenhofstraat,12.0,3620.0,Veldwezelt,Limburg,,Y,,,50.865515382432,5.630467350423
983.0,,Biesweg,18.0,3620.0,LANAKEN,Limburg,,Y,,,50.885146973135,5.60713405982
984.0,,Populierenlaan,34.0,3620.0,Rekem,Limburg,,Y,,,50.923211207112,5.693290720551
985.0,,Kasteelstraat,32.0,3620.0,Neerharen,Limburg,,Y,,,50.907600205814,5.687545764115
986.0,,Maaseikersteenweg,55.0,3620.0,Gellik,Limburg,,Y,,,50.883503407651,5.671585530821
987.0,,Jan Rosierlaan,1.0,3620.0,Lanaken,Limburg,,Y,,,50.889113205899,5.652031388903
988.0,,Aan De Engelse hof,,3620.0,LANAKEN,Limburg,,Y,,,50.889554135754,5.656132506436
989.0,,Engelse Hof,,3620.0,LANAKEN,Limburg,,Y,,,50.889554135754,5.656132506436
993.0,,Poverstraat,75.0,1731.0,Asse,Vlaams-Brabant,,Y,,,50.892878692082,4.273650461935
994.0,,Provincieplein,1.0,3010.0,Leuven,Vlaams-Brabant,,Y,,,50.876609920932,4.716994298956
995.0,,Leuvense weg,48.0,1000.0,Brussel,Bruxelles-Brussel,,N,,,50.847820975281,4.366616496987
996.0,,Leuvense weg,48.0,1000.0,Brussel,Bruxelles-Brussel,,N,,,50.847820975281,4.366616496987
997.0,,Leuvense weg,42.0,1000.0,Brussel,Bruxelles-Brussel,,N,,,50.847555017493,4.365280840716
998.0,,Hertogstraat,61.0,1000.0,Brussel,Bruxelles-Brussel,,N,,,50.837836619857,4.413434623002
999.0,,Leuvenseweg,13.0,1000.0,Brussel,Bruxelles-Brussel,,N,,,50.847251927875,4.365102976731
1000.0,,Leuvenseweg,13.0,1000.0,Brussel,Bruxelles-Brussel,,N,,,50.847251927875,4.365102976731
1001.0,,Leuvenseweg,21.0,1000.0,Brussel,Bruxelles-Brussel,,N,,,50.847621905081,4.366963591597
1002.0,,Leuvenseweg,21.0,1000.0,Brussel,Bruxelles-Brussel,,N,,,50.847621905081,4.366963591597
1003.0,,Leuvenseweg,21.0,1000.0,Brussel,Bruxelles-Brussel,,N,,,50.847621905081,4.366963591597
1004.0,,Leuvenseweg,21.0,1000.0,Brussel,Bruxelles-Brussel,,N,,,50.847621905081,4.366963591597
1005.0,,Leuvenseweg ,7.0,1000.0,Brussel,Bruxelles-Brussel,,N,,,50.847398820728,4.364273419773
1006.0,,Leuvenseweg,7.0,1000.0,Brussel,Bruxelles-Brussel,,N,,,50.847398820728,4.364273419773
1008.0,,Gemeentestraat,41.0,2560.0,Nijlen,Antwerpen,,Y,,,51.161776600015,4.67375843072
1009.0,,Rue du Boignées,13.0,1440.0,Wauthier-Braine,Brabant Wallon,,,,,50.672176936954,4.304066628359
1010.0,,Av. Arnaud Fraiteur Laan,,1050.0,Bruxelles,Bruxelles-Brussel,,,,,50.817794387691,4.39526100866
1011.0,,Veldstraat,50.0,9840.0,De,Oost-Vlaanderen,,Y,,,51.15,4.21667
1012.0,,Benzineweg,11.0,2020.0,Antwerpen,Antwerpen,,,,,51.196149988657,4.346757672889
1013.0,,Langerbruggekaai,18.0,9000.0,Gent,Oost-Vlaanderen,,,,,51.130248825592,3.766542553793
1014.0,,Drapstraat,76.0,9810.0,Nazareth,Oost-Vlaanderen,,,,,50.957894307076,3.608987668347
1015.0,,Pl. Pierre de Coubertin,1.0,1348.0,Louvain-la-Neuve,Brabant Wallon,,Y,,,50.670432265031,4.60654515493
1019.0,,Graaf Jansdijk,1.0,8380.0,Zeebrugge,West-Vlaanderen,,,,,51.336353580158,3.202451282741
1020.0,,Brusselstraat,59.0,2018.0,Antwerpen,Antwerpen,,,,,51.201757311041,4.39077178111
1021.0,,Station de Redu ,,6890.0,Redu,Luxembourg,,,,,50.002835040063,5.187183891713
1022.0,,Rue Station de Redu,,6890.0,REDU,Luxembourg,,,,,50.002835040063,5.187183891713
1023.0,,Rue Station de Redu,,6890.0,REDU,Luxembourg,,,,,50.002835040063,5.187183891713
1024.0,,Rue de Limbourg,79.0,4800.0,Verviers,Liège,,Y,,,50.601061685291,5.880557692554
1026.0,,Krijgsbaan,,2600.0,Berchem,Antwerpen,,,,,51.218727628006,4.488961528733
1027.0,,Woluwelaan,11.0,1830.0,Machelen,Vlaams-Brabant,,,,,50.915819919163,4.430409234218
1028.0,,Avenue du Progrès,,4432.0,Alleur,Liège,,,,,50.67215858596,5.534563174026
1029.0,,Savaanstraat,1.0,9810.0,Eke,Oost-Vlaanderen,,,,,50.979536590623,3.661334665334
1030.0,,Bergensesteenweg,427.0,1600.0,Sint-Pieters-Leeuw,Vlaams-Brabant,,,,,50.783730177574,4.278277021031
1032.0,,Pantserschipstraat,207.0,9000.0,Gent,Oost-Vlaanderen,,,,,51.096023042265,3.727444495879
1033.0,,Kerkstraat,36.0,9870.0,Zulte,Oost-Vlaanderen,,,,,50.937452563521,3.460876254114
1034.0,,Staatsbaan,149.0,9870.0,ZULTE,Oost-Vlaanderen,,,,,50.921355034654,3.443966518829
1035.0,,Staatsbaan,148.0,9870.0,ZULTE,Oost-Vlaanderen,,,,,50.921477117073,3.442986255252
1036.0,,Dorpsstraat,46.0,9870.0,Zulte,Oost-Vlaanderen,,,,,50.958893978582,3.488088495457
1037.0,,Lieven Gevaertstraat,15.0,2950.0,Kapellen,Antwerpen,,Y,,,51.296860189781,4.434783581847
1038.0,,A. Laporte,34.0,4900.0,Spa,Liège,,,,,50.488892290969,5.851593942312
1039.0,,Rue Frères Taymans,28.0,1480.0,Tubize,Brabant Wallon,,Y,,,50.689529158197,4.205942515537
1040.0,,Rue du Parc Industriel,31.0,7822.0,Meslin-l Evêque,Hainaut,,Y,,,50.655084364172,3.858560059529
1041.0,,Siebeponisweg,7.0,4700.0,Eupen,Liège,,,,,50.647720332009,6.00679116074
1043.0,,Rue Jourdan,,1060.0,Bruxelles,Bruxelles-Brussel,,N,,,50.833671524457,4.35297836633
1044.0,,Rue Henri Jaspaar,,1060.0,Bruxelles,Bruxelles-Brussel,,N,,,50.833628506322,4.350480956189
1045.0,,Avenue Brugmann ,27.0,1060.0,Bruxelles,Bruxelles-Brussel,,Y,,,50.821890929165,4.352872355074
1047.0,,Rue de Châtelet ,62.0,1495.0,Villers-la-Ville,Brabant Wallon,,Y,,,50.566545259471,4.527884816997
1048.0,,Straatakkers,1.0,2381.0,Ravels,Antwerpen,,,,,51.410872094059,5.007116778291
1049.0,,De Wilders,41.0,2382.0,Ravels,Antwerpen,,,,,51.453706511042,5.044528648744
1050.0,,Place Jean Jacobs ,6.0,1000.0,Bruxelles,Bruxelles-Brussel,,Y,,,50.83566780241,4.352338344023
1051.0,,Rue des Guillemins,113.0,4000.0,Liège,Liège,,Y,,,50.626845425287,5.56677435784
1052.0,,Vaartstraat,46.0,3000.0,Leuven,Vlaams-Brabant,,Y,,,50.882298089975,4.701545780851
1053.0,,Sluisberg,1.0,3800.0,Sint-Truiden,Limburg,,Y,,,50.814049281559,5.183110509619
1054.0,,Kazernestraat,13.0,3800.0,SINT-TRUIDEN,Limburg,,N,,,50.816659112841,5.181386100678
1055.0,,Plankstraat,18.0,3800.0,SINT-TRUIDEN,Limburg,,Y,,,50.816365243316,5.187940246047
1056.0,,Minderbroedersstraat,25.0,3800.0,SINT-TRUIDEN,Limburg,(CC De Bogaard),Y,,,50.813859966863,5.187668660779
1057.0,,Grote Markt ,0.0,3800.0,SINT-TRUIDEN,Limburg,,Y,,,50.815783025198,5.185943454212
1058.0,,Begaardenbosstraat,,3800.0,SINT-TRUIDEN,Limburg,,Y,,,50.855005573719,5.239745731256
1059.0,,Jodenstraat ,225.0,3800.0,SINT-TRUIDEN,Limburg,,Y,,,50.814646626675,5.192286552909
1060.0,,Sportlaan ,,3800.0,SINT-TRUIDEN,Limburg,,Y,,,50.826120181785,5.171353045087
1061.0,,Olympialaan ,10.0,3800.0,SINT-TRUIDEN,Limburg,,N,,,50.811216282105,5.181209577798
1062.0,,Olympialaan,10.0,3800.0,Sint-Truiden,Limburg,Uitleendienst,Y,,,50.811216282105,5.181209577798
1063.0,,Boulevard Anspach,6.0,1000.0,Bruxelles,Bruxelles-Brussel,,,,,50.850533107692,4.352292327374
1064.0,,Boulevard Anspach,6.0,1000.0,Bruxelles,Bruxelles-Brussel,,,,,50.850533107692,4.352292327374
1065.0,,Boulevard E. Jacqmain,1.0,1000.0,Bruxelles,Bruxelles-Brussel,,,,,50.85215643088,4.353371497408
1066.0,,Place d Escanaffles ,23.0,7760.0,Escanaffles,Hainaut,,,,,50.756434174607,3.448652002704
1067.0,,Rue du Prévôt,,1050.0,Bruxelles,Bruxelles-Brussel,,Y,,,50.821264694605,4.360257183575
1068.0,,Avenue Albert,,1342.0,Limelette,Brabant Wallon,,,,,50.665233831514,4.56097546699
1069.0,,Avenue Greiner,1.0,4100.0,Seraing,Liège,,,,,50.615643095512,5.51196987066
1070.0,,Gemeenteplein,39.0,1560.0,Hoeilaart,Vlaams-Brabant,,Y,,,50.768305757441,4.473882310313
1071.0,,Industrieweg,3.0,2880.0,Bornem,Antwerpen,,Y,,,51.090798141011,4.261007953557
1072.0,,Hombeeksesteenweg ,323.0,2800.0,Mechelen,Antwerpen,,,,,51.014623111586,4.457304163118
1073.0,,Sint-Jorisplein,25.0,3300.0,Tienen,Vlaams-Brabant,,Y,,,50.805027336257,4.935195522818
1074.0,,Rue du Parc Industriel,1.0,4480.0,Engis,Liège,,,,,50.567787283451,5.38731885989
1076.0,,Industrieweg,80.0,3620.0,Lanaken,Limburg,,,,,50.881899991483,5.654504217978
1077.0,,Industrieweg,80.0,3620.0,LANAKEN,Limburg,,,,,50.881899991483,5.654504217978
1078.0,,Industrieweg,80.0,3620.0,LANAKEN,Limburg,,,,,50.881899991483,5.654504217978
1079.0,Appareil fixe-Vast apparaat,Avenue Albert Ier,60.0,5000.0,Namur,Namur,Rez-de-chaussée,Oui-Ja,Non-Nee,Lundi au vendredi de 6h à 21h30,50.466239736633,4.882638056242
1080.0,Appareil fixe-Vast apparaat,Avenue Albert Ier,60.0,5000.0,Namur,Namur,Rez-de-chaussée,Oui-Ja,Non-Nee,Lundi au vendredi de 6h à 21h30,50.466239736633,4.882638056242
1081.0,Appareil fixe-Vast apparaat,Boulevard Piercot,35.0,4000.0,Liège,Liège,1er étage (ex) infirmerie ,Oui-Ja,Non-Nee,lundi au vendredi de 9h à 18h,50.635202098934,5.569687488288
1082.0,,E. Solvay,376.0,4000.0,Liège,Liège,,,,,50.61460705037,5.536515016824
1083.0,,Rue d Arlon,50.0,6780.0,Messancy,Luxembourg,,Y,,,49.59838070888,5.814035723831
1084.0,,Boulevard du Triomphe ,135.0,1050.0,Bruxelles,Bruxelles-Brussel,,,,,50.821462697732,4.400885740482
1085.0,,Rue Camille Hubert,2.0,5032.0,Gembloux,Namur,,,,,50.506970002552,4.720354687758
1086.0,,Route de la Lache,4.0,5150.0,Floreffe,Namur,,,,,50.446044211484,4.78958116136
1087.0,,Luchthavenlei,,2600.0,Berchem,Antwerpen,,,,,51.186912130967,4.453336086114
1088.0,,Motstraat,40.0,2800.0,Mechelen,Antwerpen,,,,,51.013630610431,4.490845270683
1093.0,,St. Lendriksborre,3.0,1120.0,Brussel,Bruxelles-Brussel,,,,,50.909169801003,4.397119080833
1094.0,,Weiveldlaan ,19.0,1930.0,Zaventem,Vlaams-Brabant,,,,,50.871850005757,4.491928212574
1096.0,,Avenue du Bourget ,60.0,1140.0,Brussel,Bruxelles-Brussel,,,,,50.8786436221,4.434774361753
1097.0,,Avenue du Bourget,60.0,1140.0,Brussel,Bruxelles-Brussel,,,,,50.8786436221,4.434774361753
1098.0,,Rue de la Spinette ,1.0,5140.0,Sombreffe,Namur,,,,,50.493956846415,4.591074895389
1099.0,,Industriestrasse,,4700.0,Eupen,Liège,,,,,50.637802961274,6.00608650154
1100.0,,Rue Chapelle Beaussart,80.0,6030.0,Marchienne-au-Pont,Hainaut,,N,,,50.405087576373,4.413275714632
1102.0,,Sint Bernardusplain ,2.0,8620.0,Nieuwpoort,West-Vlaanderen,,Y,,,51.144907211,2.730545146
1103.0,,Marktplein ,7.0,8620.0,NIEUWPOORT,West-Vlaanderen,,Y,,,51.129228203152,2.75142199488
1104.0,,KAAI  ,,8620.0,NIEUWPOORT,West-Vlaanderen,,Y,,,51.134492549493,2.743587172914
1105.0,,Dudenhofenlaan,,8620.0,NIEUWPOORT,West-Vlaanderen,,Y,,,51.132112519989,2.738138551687
1106.0,,Avenue de Stalingrad ,,1000.0,Bruxelles,Bruxelles-Brussel,,Y,,,50.840564560043,4.342749877226
1107.0,,Kerkstraat,61.0,2970.0,Schilde,Antwerpen,,,,,51.263605491847,4.556593254468
1108.0,,Schoolstraat,44.0,2970.0,SCHILDE,Antwerpen,,,,,51.235580640489,4.58126144697
1109.0,,Brasschaatse Baan,30.0,2970.0,SCHILDE,Antwerpen,,,,,51.241556853634,4.578530120001
1110.0,,Pater Nuyenlaan ,70.0,2970.0,SCHILDE,Antwerpen,,,,,51.233113553018,4.555963605901
1111.0,,De Kaak Wijnegem Steenweg,,2970.0,SCHILDE,Antwerpen,,,,,51.249464793945,4.543182487353
1112.0,,Zwijnaardsesteenweg ,811.0,9000.0,Gent,Oost-Vlaanderen,,,,,51.016164292123,3.724238082638
1113.0,,Zwijnaardsesteenweg ,811.0,9000.0,GENT,Oost-Vlaanderen,,,,,51.016164292123,3.724238082638
1114.0,,Koning Albert II Laan ,20.0,1000.0,Brussel,Bruxelles-Brussel,,Y,,,50.85914672858,4.356193516569
1115.0,,Koning Albert II Laan ,35.0,1000.0,Brussel,Bruxelles-Brussel,,,,,50.862697889499,4.359164985064
1117.0,,Koolstraat,35.0,1000.0,Brussel,Bruxelles-Brussel,,,,,50.852049645433,4.357495896685
1118.0,,Avenue de la Porallée ,,4920.0,Aywaille,Liège,,Y,,,50.477718142954,5.694146962492
1124.0,,Schuurhovenveld ,4220.0,3800.0,Sint-Truiden,Limburg,,,,,50.82278822653,5.210246758569
1125.0,,C. Van Kerkhovenstraat ,110.0,2880.0,Bornem,Antwerpen,,,,,51.096250820484,4.267059520011
1126.0,,Eikenlaan ,25.0,3740.0,Bilzen,Limburg,,,,,50.866165357114,5.511988143209
1127.0,,Boulevard International ,55.0,1070.0,Bruxelles,Bruxelles-Brussel,,,,,50.813382752618,4.300298459968
1128.0,,Bergstraat,5.0,9700.0,Oudenaarde,Oost-Vlaanderen,,Y,,,50.841797613931,3.610037417901
1129.0,,Grachtstraat ,,8900.0,Ieper,West-Vlaanderen,,Y,,,50.849928933678,2.876140463956
1130.0,,Stationsplein,55.0,8800.0,Roeselare,West-Vlaanderen,,Y,,,50.94907440755,3.12997145724
1133.0,,Rue du Baron d Obin ,143.0,4219.0,Wasseiges,Liège,,,,,50.622281562827,5.012675321201
1138.0,,Rue Cambier Dupret,,6001.0,Marcinelle,Hainaut,,Y,,,50.402015738502,4.451412688194
1140.0,,Gaston Crommenlaan,4.0,9050.0,Ledeberg,Oost-Vlaanderen,,Y,,,51.036841148062,3.735734701034
1141.0,,Gaston Crommenlaan,4.0,9050.0,Ledeberg,Oost-Vlaanderen,,Y,,,51.036841148062,3.735734701034
1142.0,,Lange Gasthuisstraat,20.0,2018.0,Antwerpen,Antwerpen,,,,,51.215202389851,4.40425861832
1143.0,,Gulden Vlieslaan ,87.0,1060.0,Brussel,Bruxelles-Brussel,,Y,,,50.833631460943,4.351159010246
1144.0,,Industrielaan ,40.0,3730.0,Hoeselt,Limburg,,Y,,,50.862054368882,5.493617190744
1145.0,,Emmanuel de Neckerestraat ,5.0,8000.0,Brugge,West-Vlaanderen,,Y,,,51.216141582102,3.211917804187
1146.0,,Jozef Van cleemputplein ,,2850.0,Boom,Antwerpen,,,,,51.090004179235,4.372406565245
1147.0,,Leopold II park ,,8620.0,Nieuwpoort,West-Vlaanderen,,Y,,,51.1301355,2.7462318
1148.0,,St - Jobsteenweg ,120.0,2970.0,Schilde,Antwerpen,,,,,51.279834700413,4.574248727678
1149.0,,Rue de Canal ,2.0,4600.0,Lixhe,Liège,,Y,,,50.754283420161,5.673566593637
1150.0,,Rue du Canal ,4.0,4600.0,Lixhe,Liège,,Y,,,50.753627748455,5.674129227809
1151.0,,Chaussée de Bruxelles,88.0,1400.0,Nivelles,Brabant Wallon,,,,,50.606193547419,4.332326466372
1152.0,,Industriepark ,3.0,2235.0,Hulshout,Antwerpen,,,,,51.083521475589,4.803604755925
1153.0,,Entrepotstraat,2.0,9300.0,Sint-Niklaas,Oost-Vlaanderen,,Y,,,51.176210740198,4.165973432439
1154.0,,Rue Géo Warzée,19.0,4520.0,Wanze,Liège,,,,,50.537243621412,5.222905001529
1155.0,,Rue Moucousin ,26.0,4520.0,Wanze,Liège,,,,,50.534297856751,5.21225698535
1156.0,,Rue de Châtelet ,62.0,1495.0,Villers-la-Ville,Brabant Wallon,,Y,,,50.566545259471,4.527884816997
1157.0,,Sportlaan ,1.0,3400.0,Landen,Vlaams-Brabant,,Y,,,50.751246237546,5.085336614906
1158.0,,Sportlaan ,1.0,3400.0,Landen,Vlaams-Brabant,,Y,,,50.751246237546,5.085336614906
1159.0,,Rue de l Eglise ,21.0,4340.0,Awans,Liège,,,,,50.665618582553,5.462358727449
1160.0,,Tiensesteenweg ,127.0,3800.0,Sint-Truiden,Limburg,,Y,,,50.81550094337,5.171768788794
1161.0,,Allée des Artisans ,,5590.0,Ciney,Namur,,Y,,,50.310618196683,5.106950744105
1162.0,,Boezingestraat ,,8920.0,Langemark-Poelkapelle,West-Vlaanderen,,,,,50.903805372466,2.902431943829
1163.0,,Chaussée de Waterloo,1453.0,1180.0,Bruxelles,Bruxelles-Brussel,,,,,50.784076266356,4.378013706011
1165.0,,Henry Fordlaan,60.0,3600.0,Genk,Limburg,,N,,,50.928167049274,5.478323234934
1166.0,,Onze-Lieve-Vrouwlaan ,1.0,2570.0,Duffel,Antwerpen,,,,,51.094243606131,4.509076664461
1167.0,,Telecomlaan ,5.0,1831.0,Diegem,Vlaams-Brabant,,,,,50.882543889285,4.440036772024
1168.0,,Telecomlaan ,5.0,1831.0,Diegem,Vlaams-Brabant,,,,,50.882543889285,4.440036772024
1169.0,,Rue sur les Keyeux,,4630.0,Soumagne,Liège,,,,,50.624635788858,5.719364959967
1170.0,,Place de la Gare,,4630.0,SOUMAGNE,Liège,,,,,50.632550978,5.73126648
1171.0,,Rue Pierre Currie ,36.0,4630.0,SOUMAGNE,Liège,,Y,,,50.61080925019,5.748425559707
1173.0,,Laura Fredericklaan,15.0,8600.0,Diksmuide,West-Vlaanderen,,Y,,,51.034398703386,2.86950406752
1174.0,,Nieuwpoortsesteenweg ,889.0,8400.0,Oostende,West-Vlaanderen,,,,,51.202853960545,2.865597933003
1175.0,,Brusselstraat ,15.0,8400.0,OOSTENDE,West-Vlaanderen,,,,,51.229810119248,2.912752508611
1177.0,,Groenenborgerlaan ,171.0,2020.0,Antwerpen,Antwerpen,,,,,51.178195197684,4.415540659994
1178.0,,Grote Kauwenberg,2.0,2020.0,Antwerpen,Antwerpen,,,,,51.223305008012,4.410732381237
1180.0,,Rue des Ecoles,3.0,4210.0,Burdinne,Liège,,,,,50.583382239837,5.073497847222
1181.0,,Rue des Ecoles,3.0,4210.0,BURDINNE,Liège,,,,,50.583382239837,5.073497847222
1182.0,,Rue des Hêtres,10.0,5100.0,JAMBES,Namur,,,,,50.456441752825,4.889870465216
1183.0,,Chaussée de Romaine,60.0,6600.0,BASTOGNE,Luxembourg,,Y,,,49.997504391715,5.683117208784
1185.0,,Kaardeloodstraat ,97.0,9400.0,Ninove,Oost-Vlaanderen,,Y,,,50.834832839125,4.019606292257
1189.0,,Chaussée de la Hulpe ,154.0,1170.0,Bruxelles,Bruxelles-Brussel,,,,,50.796482949889,4.402055183613
1191.0,,Quai des Ardennes ,127.0,4031.0,Angleur,Liège,,,,,50.6156311513,5.60683541261
1192.0,,Rue du Canal de l Ourthe,8.0,4031.0,Angleur,Liège,,,,,50.614085444535,5.603916582467
1193.0,,Solveld ,32.0,3980.0,Tessenderlo,Limburg,,Y,,,51.063990216266,5.086319560691
1194.0,,Avenue des Communautés,5.0,1140.0,Bruxelles,Bruxelles-Brussel,,,,,50.860078921942,4.423229212138
1195.0,,Rue de Russie ,41.0,1060.0,Bruxelles,Bruxelles-Brussel,,,,,50.83540121598,4.341271465803
1196.0,,Route de Lennik,1015.0,1070.0,Bruxelles,Bruxelles-Brussel,,,,,50.81771271807,4.255811173588
1197.0,,Rue de la Perche 38,38.0,1060.0,Bruxelles,Bruxelles-Brussel,,,,,50.826902888169,4.341023529107
1198.0,,Rue Fond des Bas Près ,1.0,5000.0,Namur,Namur,,,,,50.468164556878,4.844872218019
1199.0,,Rue des Dames Blanches,24.0,5000.0,Namur,Namur,,Y,,,50.467287558349,4.86720839742
1201.0,,Dellestraat ,55.0,3550.0,Heusden-Zolder,Limburg,,N,,,50.981522556851,5.244856469913
1202.0,,Rue Maréchal Foch ,21.0,4400.0,Flémalle,Liège,,,,,50.59875468311,5.472547112043
1203.0,,Place de la Bienfaisance /cité Rey,100.0,7090.0,Braine-le-Comte,Hainaut,,Y,,,50.613843584719,4.141789965398
1204.0,,Rue des Frères Dulait,19.0,7090.0,BRAINE-LE-COMTE,Hainaut,,Y,,,50.601337156539,4.135765975404
1205.0,,Grand-Place ,39.0,7090.0,BRAINE-LE-COMTE,Hainaut,HALL ENTREE ACCUEIL,Y,N,,50.610858286084,4.136834751878
1206.0,,Rue de Crampon ,14.0,7500.0,Tournai,Hainaut,,y,,,50.616330034387,3.394578082205
1207.0,,Chaussée de Liège ,219.0,5100.0,Jambes,Namur,,Y,,,50.460332087455,4.886120234097
1208.0,,Rue du Bilemont,225.0,7700.0,Mouscron,Hainaut,,Y,,,50.735908400331,3.216544679511
1209.0,,Place des Archers ,8.0,7000.0,Mons,Hainaut,,Y,,,50.452225697437,3.957485493253
1210.0,,Rue Natalis ,49.0,4020.0,Liège,Liège,,Y,,,50.630314024459,5.582631409905
1211.0,,Rue Gustave Boël ,19.0,7100.0,La,Hainaut,,Y,,,43.499484,-87.848432
1212.0,,Avenue des Fossées ,,4500.0,Huy,Liège,,Y,,,50.520285817416,5.232512994475
1213.0,,Rue Pont Neuf ,7.0,6000.0,Charleroi,Hainaut,,Y,,,50.40709241778,4.447081258729
1214.0,,Rue de la Toffette,,5650.0,Walcourt,Namur,,Y,,,50.250503501507,4.433800015683
1215.0,,Rue de l Escalier,38.0,1000.0,Bruxelles,Bruxelles-Brussel,,Y,,,50.843120697347,4.35285450162
1216.0,,Galerie des 2 Places - Place Verte ,2.0,4800.0,Verviers,Liège,,Y,,,50.592820639998,5.861885159212
1217.0,,Rue de l Hopital ,31.0,1000.0,Bruxelles,Bruxelles-Brussel,,Y,,,50.843884162998,4.353403516278
1218.0,,Rue de la Moselle,2.0,6700.0,Arlon,Luxembourg,,Y,,,49.67794961281,5.812866029242
1219.0,,Marcel Broodthaersplein ,4.0,1060.0,Bruxelles,Bruxelles-Brussel,,Y,,,50.835344428586,4.338338134968
1221.0,,Gasthuisstraat ,31.0,1000.0,Brussel,Bruxelles-Brussel,,Y,,,50.843884162998,4.353403516278
1222.0,,Trapstraat ,38.0,1000.0,Brussel,Bruxelles-Brussel,,Y,,,50.843120697347,4.35285450162
1223.0,,Rue de la Tofette ,16.0,5650.0,Walcourt,Namur,,Y,,,50.251376270434,4.433203760736
1224.0,,Leopoldstraat ,,1800.0,Vilvoorde,Vlaams-Brabant,,Y,,,50.926456576184,4.429719328848
1225.0,,Spoorwegstraat ,24.0,2300.0,Turnhout,Antwerpen,,Y,,,51.319001867119,4.936496226553
1226.0,,Hondsstraat ,25.0,3700.0,Tongeren,Limburg,,Y,,,50.779747683918,5.461683396931
1227.0,,Plezantstraat,159.0,9100.0,Sint-Niklaas,Oost-Vlaanderen,,Y,,,51.167491800695,4.13363328396
1228.0,,Kaaistraat ,18.0,8400.0,Oostende,West-Vlaanderen,,Y,,,51.231101770527,2.920863760133
1229.0,,Stationsstraat,,2800.0,Mechelen,Antwerpen,,Y,,,51.020225160655,4.485252512089
1230.0,,Kolonel Begaultlaan ,,3012.0,Leuven,Vlaams-Brabant,,Y,,,50.888138249394,4.706033623178
1231.0,,Marksesteenweg ,5.0,8500.0,Kortrijk,West-Vlaanderen,,Y,,,50.824154629756,3.255931345399
1232.0,,Bampslaan,23.0,3500.0,Hasselt,Limburg,,Y,,,50.930455560298,5.330567716309
1233.0,,Jan Samijnstraat,1.0,9050.0,Gent,Oost-Vlaanderen,,Y,,,51.040557600111,3.752605460469
1234.0,,Geldroplaan,5.0,9200.0,Dendermonde,Oost-Vlaanderen,,Y,,,51.024345616356,4.100545553537
1235.0,,Lentestraat ,23.0,2018.0,Antwerpen,Antwerpen,,Y,,,51.212661541632,4.425103824784
1236.0,,Sint Jobstraat,196.0,9300.0,Aalst,Oost-Vlaanderen,,Y,,,50.932132150481,4.030111331507
1237.0,,Bld de Waterloo ,,1000.0,Bruxelles,Bruxelles-Brussel,,,,,50.835686200688,4.354426359923
1238.0,,Place de la Justice ,16.0,1000.0,Bruxelles,Bruxelles-Brussel,,,,,50.843902645094,4.354611683802
1239.0,,Place d Armes ,,5000.0,Namur,Namur,,,,,50.462833026816,4.86777594847
1240.0,,t Zand ,,8000.0,Brugge,West-Vlaanderen,,,,,51.203553095089,3.217796284341
1241.0,,Bargeweg,,8000.0,Brugge,West-Vlaanderen,,,,,51.197013173429,3.227080602509
1242.0,,Rue Marché aux Herbes,104.0,1000.0,Bruxelles,Bruxelles-Brussel,,,,,50.846644323713,4.355432104485
1243.0,,Hopland,2.0,2018.0,Antwerpen,Antwerpen,,,,,51.21640573778,4.409782963064
1245.0,,Eiermarkt ,,2018.0,Antwerpen,Antwerpen,,,,,51.21912124173,4.404035608522
1246.0,,Rue de l Evêque ,1.0,1000.0,Bruxelles,Bruxelles-Brussel,,,,,50.849552187853,4.352822165377
1247.0,,Avenue Louise ,,1000.0,Bruxelles,Bruxelles-Brussel,,,,,50.823380383316,4.368247404044
1248.0,,Buiten Begijnevest,,8000.0,Brugge,West-Vlaanderen,,,,,51.198927581663,3.219398869548
1249.0,,Bld. De la Woluwe,,1200.0,Bruxelles,Bruxelles-Brussel,,,,,50.85453069621,4.444611286985
1250.0,,Brussels Airport,,1930.0,Zaventem,Vlaams-Brabant,,,,,50.90139,4.48444
1251.0,,Brussels Airport,,1930.0,Zaventem,Vlaams-Brabant,,,,,50.90139,4.48444
1252.0,,Brussels Airport,,1930.0,Zaventem,Vlaams-Brabant,,,,,50.90139,4.48444
1253.0,,Wilsonplein,4.0,9000.0,Gent,Oost-Vlaanderen,,,,,51.048359768953,3.730320913592
1254.0,,Rue du Cyclotron ,1348.0,1348.0,Louvain-la-Neuve,Brabant Wallon,,,,,50.665937497418,4.625141954373
1255.0,,Begijnstraat ,42.0,1000.0,Brussel,Bruxelles-Brussel,,,,,50.857534385686,4.316324155925
1256.0,,Leuvenseweg ,474.0,2812.0,Muizen,Antwerpen,,,,,51.008614292838,4.508901985599
1258.0,,Porte de Lorette,15.0,4600.0,VISÉ,Liège,,Y,,,50.732017816385,5.698663771944
1259.0,,Rue de Berneau ,30.0,4600.0,VISÉ,Liège,,Y,,,50.737149510876,5.70780826067
1260.0,,Sint Lambertusstraat,200.0,1200.0,Brussel,Bruxelles-Brussel,,,,,50.845421278312,4.436319733242
1261.0,,Distelvinklaan,22.0,2660.0,Hoboken,Antwerpen,,Y,,,51.169335903213,4.361030209978
1262.0,,Avenue Louise,23.0,1050.0,Bruxelles,Bruxelles-Brussel,,,,,50.834528282673,4.356109697538
1263.0,,Sint-Jacobstraat,26.0,9200.0,Dendermonde,Oost-Vlaanderen,,,,,51.029360676664,4.10500271437
1264.0,,Victor Hortaplein ,40.0,1060.0,Brussel,Bruxelles-Brussel,,Y,,,50.836342587525,4.333639659143
1265.0,,Place Victor Horta ,40.0,1060.0,Bruxelles,Bruxelles-Brussel,,Y,,,50.836342587525,4.333639659143
1266.0,,Ikaroslaan ,41.0,1930.0,Zaventem,Vlaams-Brabant,,Y,,,50.874740798434,4.489629224171
1267.0,,Rue des Georgin ,2.0,1030.0,Bruxelles,Bruxelles-Brussel,,,,,50.856795856197,4.408887021434
1268.0,,Sportveldenstraat,10.0,3920.0,Lommel,Limburg,,Y,,,51.244743820859,5.30695103356
1269.0,,Rue des Ateliers ,14.0,6200.0,Châtelet,Hainaut,,,,,50.410573379828,4.523472590808
1270.0,,Rue des Ateliers ,14.0,6200.0,Châtelet,Hainaut,,,,,50.410573379828,4.523472590808
1271.0,,Liersesteenweg ,2.0,2800.0,Mechelen,Antwerpen,,,,,51.034298707281,4.484186183887
1272.0,Appareil fixe-Vast apparaat,Zepperenweg,26.0,3800.0,Sint-Truiden,Limburg,"Dit AED-toestel hangt aan de buitengevel van de brandweerkazerne in Sint-Truiden, vlakbij de personeelsingang (in de buurt van de hoofdingang).",Oui-Ja,Oui-Ja,,50.817537745842,5.196367579138
1274.0,,Chaussée de Charleroi,83.0,5000.0,Namur,Namur,,,,,50.461370940535,4.840830631946
1275.0,,Place à Joséphine Charlotte,,5100.0,Jambes,Namur,,Y,,,50.460587857286,4.87680464972
1276.0,,Place de la Gare,1.0,6724.0,Houdemont,Luxembourg,,Y,,,49.726578146092,5.538250908972
1277.0,,Rue du Châtelet,2.0,6720.0,Habay,Luxembourg,,Y,,,49.731771908576,5.654070789765
1281.0,,Markiesstraat ,1.0,1000.0,Brussel,Bruxelles-Brussel,,,,,50.847375938132,4.358562661502
1282.0,,Jules Bourboux,,5170.0,Bois-de-Villers,Namur,,Y,,,50.39033,4.82407
1283.0,,Chaussée de Dinant ,2.0,5170.0,Profondeville,Namur,,Y,,,50.377709656198,4.869017463582
1284.0,,avenue Roquebrune Cap Martin ,32.0,5170.0,Profondeville,Namur,,Y,,,50.381252189934,4.853192791902
1286.0,,Chaussée de Tongres ,269.0,4000.0,Liège,Liège,,Y,,,50.670247590481,5.543560676995
1290.0,,Koninginnelaan ,42.0,3630.0,Maasmechelen,Limburg,,,,,50.990501125804,5.695925404176
1291.0,,Rijksweg ,155.0,3630.0,Maasmechelen,Limburg,,,,,50.984295080874,5.714043893718
1292.0,,Ringlaan,400.0,3630.0,Maasmechelen,Limburg,,,,,50.972623196883,5.669099458339
1293.0,,Dr.Haubenlaan ,4.0,3630.0,Maasmechelen,Limburg,,,,,50.962711219193,5.698054491402
1294.0,,Gemeenteplein ,1.0,2580.0,Putte,Antwerpen,,,,,51.057203975998,4.628621798301
1295.0,,Mechelbaan ,604.0,2580.0,Putte,Antwerpen,,,,,51.051386055095,4.613804269868
1296.0,,Rue Montoyer,51.0,1000.0,Bruxelles,Bruxelles-Brussel,,Y,,,50.84078742696,4.371340453798
1297.0,,Avenue de Thouars,,4280.0,Hannut,Liège,,,,,50.672107005803,5.074896887715
1298.0,,Rue de Landen ,19.0,4280.0,Hannut,Liège,,,,,50.673348391742,5.07923492467
1299.0,,Avenue de Thouars,,4280.0,Hannut,Liège,,,,,50.672107005803,5.074896887715
1300.0,,Rue de Landen ,23.0,4280.0,Hannut,Liège,,,,,50.673816814401,5.079340452831
1303.0,,Rue des Trois Bourdons ,27.0,4950.0,WAIMES,Liège,,,,,50.462386317,6.124656946
1304.0,,Rue des Trois Bourdons,27.0,4950.0,WAIMES,Liège,,,,,50.462386317,6.124656946
1305.0,,Mitoyenne ,879.0,4950.0,WAIMES,Liège,,,,,50.462386317,6.124656946
1306.0,,kerkomsesteenweg ,55.0,3370.0,Boutersem,Vlaams-Brabant,,Y,,,50.844856212309,4.841637473945
1307.0,,Pastorijstraat ,62.0,2590.0,Berlaar,Antwerpen,,Y,,,51.119148880764,4.668752758144
1308.0,,John Cordierlaan ,9.0,8400.0,Oostende,West-Vlaanderen,,,,,51.205306463505,2.981668684157
1311.0,,Kerkplaats,,2160.0,Wommelgem,Antwerpen,,,,,51.203787902081,4.523304622988
1312.0,,Rue Verte,11.0,7000.0,Mons,Hainaut,,Y,,,50.455944538329,3.955467550063
1314.0,,Avenue des biolleux,19.0,4800.0,Verviers,Liège,,Y,,,50.62150476995,5.840385912843
1315.0,,Vautierstraat,29.0,9400.0,Ninove,Oost-Vlaanderen,,,,,50.826036291,4.004816149
1316.0,,Chemin de Struykbeken,2.0,1200.0,Bruxelles,Bruxelles-Brussel,,,,,50.84253094664,4.44422177246
1320.0,,Rue des Thermes Romains ,7.0,6700.0,ARLON,Luxembourg,,Y,,,49.679896447655,5.812875108003
1321.0,,Avenue de la Station,,5030.0,GEMBLOUX,Namur,,Y,,,50.569709057641,4.69160279871
1322.0,,Veldonkstraat,1.0,3120.0,Tremelo,Vlaams-Brabant,,Y,,,50.991209019437,4.704607019529
1323.0,,Rue des Biolleux,3.0,4800.0,VERVIERS,Liège,,Y,,,50.622671853784,5.832927077783
1324.0,,Rue de l avenir ,1.0,4530.0,Villers,Liège,Bouillet,,,,50.6385,5.91643
1325.0,,Guldensporenlaan ,34.0,9940.0,EVERGEM,Oost-Vlaanderen,,,,,51.172139901282,3.739137250809
1326.0,,Hermeslaan ,,1831.0,DIEGEM,Vlaams-Brabant,,Y,,,50.882596145554,4.443858248308
1327.0,,Rue du bois,,7334.0,SAINT-GHISLAIN,Hainaut,,,,,50.478567455886,3.791457744064
1328.0,,Paradeplein ,1.0,2500.0,LIER,Antwerpen,,Y,,,51.132227834841,4.561115458869
1329.0,,Rue De l industrie,,1400.0,Nivelles,Brabant Wallon,,,,,50.579683173079,4.35321613557
1330.0,,Route de Forrieres ,4.0,5580.0,Jemelle,Namur,,,,,50.154243288399,5.265655632526
1331.0,,Route de Forrieres ,4.0,5580.0,Jemelle,Namur,,,,,50.154243288399,5.265655632526
1332.0,,Rue du Chêne,1.0,4031.0,Liege,Liège,,,,,50.610996671306,5.579731019949
1333.0,,Place du Marché ,2.0,4000.0,Liège,Liège,,,,,50.645401450175,5.575629503269
1334.0,,Potierue ,5.0,4000.0,Liège,Liège,,Y,,,50.645745946395,5.579289545109
1335.0,,Quai de la Batte,10.0,4000.0,Liège,Liège,,Y,,,50.521246814412,5.237142772059
1337.0,,Rue de Namur,2.0,4000.0,Liège,Liège,,Y,,,50.619058679146,5.576915622492
1338.0,,Koning Albert 1 laan,,8200.0,Sint-Michiels,West-Vlaanderen,,Y,,,51.165416140907,3.194776711868
1339.0,,Burgemeester E.Ryckaertplaats,1.0,2600.0,Berchem,Antwerpen,,,,,51.200235663541,4.43271434141
1340.0,,Koningin Astridplein,27.0,2018.0,Antwerpen,Antwerpen,,,,,51.217365381875,4.42114195061
1341.0,,Place des Guillemins,2.0,4000.0,Liège,Liège,,,,,50.625707037107,5.565636598303
1343.0,,Orpheusplein,1.0,2000.0,Antwerpen,Antwerpen,,,,,51.198622272908,4.442173151505
1346.0,,Krijgsbaan,20.0,2000.0,Antwerpen,Antwerpen,,,,,51.166961854867,4.35417900996
1347.0,,Desguinlei ,,2000.0,Antwerpen,Antwerpen,,,,,51.196678155077,4.397064636194
1353.0,,Wandeldijk,40.0,2000.0,Antwerpen,Antwerpen,,,,,51.23479626199,4.393612092544
1354.0,,Chaussée de Boitsfort,15.0,1050.0,Bruxelles,Bruxelles-Brussel,,,,,50.804229546713,4.394142331739
1355.0,,Houtsaegerlaan ,13.0,8670.0,Koksijde,West-Vlaanderen,,Y,,,51.106195990511,2.651525467006
1356.0,,Zeedijk,,8670.0,Koksijde,West-Vlaanderen,,Y,,,51.119989378636,2.631311110324
1357.0,,Zeedijk,,8670.0,Koksijde,West-Vlaanderen,,Y,,,51.119989378636,2.631311110324
1358.0,,Leopold II-laan,2.0,8670.0,Koksijde,West-Vlaanderen,,Y,,,51.11602507118,2.682529959214
1359.0,,Zeedijk,,8670.0,Koksijde,West-Vlaanderen,,Y,,,51.119989378636,2.631311110324
1360.0,,Oudegemsebaan,2.0,9200.0,Dendermonde,Oost-Vlaanderen,,Y,,,51.009027646393,4.061560567497
1361.0,,Kerkstraat,24.0,9200.0,Dendermonde,Oost-Vlaanderen,,y,,,51.031936184052,4.097562266559
1362.0,,Van Langenhovenstraat ,,9200.0,Dendermonde,Oost-Vlaanderen,,y,,,51.017844438245,4.102168870451
1363.0,,Zeelaan,303.0,8670.0,Koksijde,West-Vlaanderen,,Y,,,51.118579791448,2.634396544953
1365.0,,Potstraat,12.0,3300.0,Tienen,Vlaams-Brabant,,Y,,,50.790119828093,4.941075595534
1366.0,,Breestraat,109.0,9200.0,Dendermonde,Oost-Vlaanderen,,,,,51.01503914735,4.109249992347
1367.0,,Kloosterstraat,30.0,9200.0,DENDERMONDE,Oost-Vlaanderen,,,,,51.035570870636,4.162735670881
1368.0,,Au Gris Han,12.0,6970.0,Tenneville,Luxembourg,,N,,,50.091761448463,5.489004880883
1369.0,,Grignamont,,6970.0,Tenneville,Luxembourg,,N,,,50.109225490488,5.502326009052
1371.0,,Quai de la Voirie,1.0,1000.0,Bruxelles,Bruxelles-Brussel,,Y,,,50.860258713765,4.349932905449
1372.0,,"Grand Place, Hôtel de Ville",,1000.0,Bruxelles,Bruxelles-Brussel,,,,,50.846648,4.3519915
1373.0,,De Tournai,2.0,7604.0,Callenelle,Hainaut,,,,,50.526623176656,3.527202673036
1374.0,,Pluimstraat,16.0,8600.0,Diksmuide,West-Vlaanderen,,Y,,,51.025703107484,2.872479140233
1375.0,,Pluimstraat,18.0,8600.0,DIKSMUIDE,West-Vlaanderen,,Y,,,51.026496622258,2.868979276563
1376.0,,Steenweg op Gierle,417.0,2300.0,Turnhout,Antwerpen,,N,,,51.302105081874,4.919422457423
1377.0,,Steenweg op Gierle,417.0,2300.0,TURNHOUT,Antwerpen,,N,,,51.302105081874,4.919422457423
1379.0,,Rue General de Gaulle,55.0,1310.0,La hulpe,Brabant Wallon,,Y,,,50.73818622657,4.48540734336
1380.0,,Gert-Noël-strasse,,4731.0,Eynatten,Liège,,Y,,,50.677529364559,6.075621850506
1381.0,,Brandstraat,3.0,9160.0,Lokeren,Oost-Vlaanderen,,Y,,,51.084974017499,4.012211525818
1383.0,,Balsakker,,2275.0,Lille,Antwerpen,,,,,51.237700995742,4.809838139623
1386.0,,Rue des Combattants,26.0,4051.0,Vaux-sous-Chèvremont,Liège,,Y,,,50.601631067973,5.633209490046
1387.0,,Place Victor Horta,11.0,1060.0,Bruxelles,Bruxelles-Brussel,,Y,,,50.837002788129,4.335374126367
1388.0,,Place Victor Horta,11.0,1060.0,Brussel,Bruxelles-Brussel,,Y,,,50.837002788129,4.335374126367
1389.0,,Koloniënstraat,56.0,1000.0,Brussel,Bruxelles-Brussel,,,,,50.847287299506,4.360960640181
1390.0,,Baalsebaan,289.0,3120.0,Tremelo,Vlaams-Brabant,,,,,50.994998058768,4.749251382774
1391.0,,Oudaan,,2000.0,Antwerpen,Antwerpen,,Y,,,51.215847872627,4.403510597734
1392.0,,Rue Jarlicyn,5.0,6800.0,Libramont-Chevigny,Luxembourg,,Y,,,49.923497592063,5.379263556273
1393.0,,Rue de la Halle,1.0,7000.0,Mons,Hainaut,,Y,,,50.452296775976,3.954076573231
1394.0,,Place des Carmes ,,1300.0,Wavre,Brabant Wallon,,Y,,,50.716053328961,4.607290467055
1395.0,,Abdijbekepark,2.0,8200.0,Brugge,West-Vlaanderen,,Y,,,51.194331618582,3.199572099
1396.0,,Leopoldplein,16.0,3500.0,Hasselt,Limburg,,Y,,,50.927514057107,5.334934184949
1397.0,,H. Spilleboutdreef,1.0,8800.0,Roeselare,West-Vlaanderen,,,,,50.937569155794,3.124562782759
1398.0,,Avenue du Parc ,,4800.0,Verviers,Liège,,,,,50.624606711297,5.835054723999
1401.0,,Rue de la Digue,22.0,4400.0,Flémalle,Liège,,,,,50.594329574596,5.474068996509
1403.0,,Rue de l Avouerie,7.0,4000.0,Liège,Liège,,y,,,50.61120315949,5.550816136203
1404.0,,Rue J.J. Gaillard,2.0,5020.0,Flawinne,Namur,,,,,50.4557937898,4.82750223243
1405.0,,Rue Tir de Ronet,39.0,5020.0,FLAWINNE,Namur,,Y,,,50.453176037619,4.832794649914
1406.0,,Rue J.J. Gaillard,2.0,5020.0,FLAWINNE,Namur,,,,,50.4557937898,4.82750223243
1408.0,,Rue Aily 1 ,1.0,4431.0,Loncin,Liège,,Y,,,50.660859831349,5.505381729229
1409.0,,Rue des Guillemins ,,4000.0,Liège,Liège,,,,,50.628514571045,5.567522865834
1410.0,,RUE DE TILFF,,4031.0,Angleur,Liège,,,,,50.583455080956,5.591869899855
1411.0,,Rue de la Providence,150.0,6030.0,Marchienne-au-Pont,Hainaut,,Y,,,50.413030278179,4.408339654208
1412.0,Appareil fixe-Vast apparaat,Rue Ferrer ,114.0,6000.0,La Hestre,Hainaut,Agence Solidaris - Rez de chaussée,Non-Nee,Non-Nee,8h00 - 17h00,50.474883322825,4.23611847881
1413.0,,Maria Doolaeghestraat,,8600.0,Diksmuide,West-Vlaanderen,,,,,51.031855883213,2.865835152658
1414.0,,Rue de Courrière,49.0,7181.0,Feluy,Hainaut,,Y,,,50.525495719904,4.203530678571
1415.0,,Hallepoortlaan,40.0,1060.0,Brussel,Bruxelles-Brussel,,,,,50.835964312235,4.341472296203
1416.0,,Montezumalaan,1.0,2200.0,Herentals,Antwerpen,,,,,51.176995537792,4.805812884497
1417.0,,Avenue des Combattants,,1340.0,Ottignies,Brabant Wallon,,,,,50.66704588469,4.568134092582
1419.0,,Tijsmanstunnel West,,2040.0,Antwerpen,Antwerpen,,Y,,,51.306290398733,4.312524635951
1420.0,,Rue Vital Françoisse,220.0,6000.0,Charleroi,Hainaut,,N,,,50.403603241036,4.424764022429
1421.0,,Montaigneweg,2.0,3620.0,Lanaken,Limburg,,Y,,,50.881563038976,5.641353430991
1422.0,,Avenue Louise,65.0,1050.0,Bruxelles,Bruxelles-Brussel,,,,,50.832947665282,4.357446359637
1423.0,,Koning Albertplein,2.0,2800.0,Mechelen,Antwerpen,,,,,51.017594580081,4.482220292316
1424.0,,Martelarenplein ,16.0,3000.0,Leuven,Vlaams-Brabant,,,,,50.881701759473,4.714812657197
1425.0,,Chemin de Xhénorie,7.0,4890.0,Thimister-Clermont,Liège,,,,,50.631696752245,5.875612681299
1426.0,,Frankrijkstraat,40.0,1060.0,Brussel,Bruxelles-Brussel,,,,,50.834599277393,4.332910265929
1427.0,,Koningin Astridplein,27.0,2018.0,Antwerpen,Antwerpen,,,,,51.217365381875,4.42114195061
1428.0,,Guldenstraat,18.0,2800.0,Mechelen,Antwerpen,,,,,51.025390378677,4.476742131858
1429.0,,Waterloosesteenweg,715.0,1180.0,Brussel,Bruxelles-Brussel,,,,,50.815525544256,4.36677030491
1430.0,,Zeevaartstraat,11.0,2000.0,Antwerpen,Antwerpen,,,,,51.041218555086,4.461844556249
1431.0,,Burg E. Ryckaertsplein,2.0,2600.0,Berchem,Antwerpen,,,,,51.200469560549,4.432875525408
1432.0,,Korte Klarenstraat,10.0,2000.0,Antwerpen,Antwerpen,,,,,51.218952662879,4.407278785672
1433.0,,Dambordstraat,26.0,1000.0,Brussel,Bruxelles-Brussel,,,,,50.853080996709,4.357750622722
1434.0,,Clarissenstraat,41.0,3700.0,Tongeren,Limburg,,,,,50.781814703151,5.469681911855
1436.0,,Rodestraat,47.0,1180.0,Brussel,Bruxelles-Brussel,,,,,50.801031766832,4.342371674414
1437.0,,Jean Vander Elstplein,29.0,1180.0,Brussel,Bruxelles-Brussel,,,,,50.803552666122,4.333110425776
1438.0,,Rue Emile Francqui,5.0,1435.0,Mont-Saint-Guibert,Brabant Wallon,,,,,50.658509936251,4.623595215898
1439.0,,Rue de Liège,6.0,6180.0,Courcelles,Hainaut,,Y,,,50.472677457366,4.369266687133
1440.0,,Rue du Christ,,6830.0,Bouillon,Luxembourg,,,,,49.795255525275,5.077069754143
1441.0,,Koning Albert II-laan,15.0,1210.0,Brussel,Bruxelles-Brussel,,Y,,,50.858513391976,4.356999771836
1442.0,,Avenue Reine Astrid,5.0,4650.0,Herve,Liège,,,,,50.644016971785,5.796120355206
1444.0,,Avenue d Alés,1.0,4040.0,Herstal,Liège,,Y,,,50.669654333966,5.62512346067
1445.0,,Place Jean Jaurés,1.0,4040.0,Herstal,Liège,,Y,,,50.664984677297,5.630435331552
1446.0,,Rue Emile Muraille,158.0,4040.0,Herstal,Liège,,Y,,,50.675014749608,5.618553514557
1447.0,,Rue Large Voie,74.0,4040.0,Herstal,Liège,,Y,,,50.666581978639,5.633973036781
1449.0,,Avenue de Stassart,,5000.0,Namur,Namur,,,,,50.467525694001,4.856298165234
1450.0,,Square des Martyrs du 18 Août ,,6000.0,Charleroi,Hainaut,,,,,50.405666777642,4.436919421775
1451.0,,Square Roosvelt,14.0,7000.0,Mons,Hainaut,,,,,50.453355829443,3.945882676144
1453.0,,Sportstraat,2.0,8020.0,OOSTKAMP,West-Vlaanderen,,,,,51.094383500095,3.208388939131
1454.0,,Martelarenlaan,42.0,3500.0,Hasselt,Limburg,,,,,50.933638923305,5.342328951388
1456.0,,Antwerpsestraat,145.0,2500.0,LIER,Antwerpen,,Y,,,51.134734820172,4.565126283357
1457.0,,Bruggestraat,104.0,8480.0,Eernegem,West-Vlaanderen,,,,,51.131421663394,3.03561151169
1458.0,,Markt,10.0,8480.0,EERNEGEM,West-Vlaanderen,,,,,51.091841101224,3.009646638767
1460.0,,Tervurenlaan,361.0,1150.0,Brussel,Bruxelles-Brussel,,,,,50.827004895931,4.437998376991
1461.0,,Bormstraat,24.0,2830.0,Tisselt,Antwerpen,,,,,51.021226961641,4.358878156337
1462.0,,Kuiermansstraat,1.0,1880.0,Kapelle-op-den-Bos,Vlaams-Brabant,,,,,51.009534164802,4.361483838578
1463.0,,Industriepark,7.0,2220.0,Heist-Op-Den-Berg,Antwerpen,,,,,51.061738082702,4.723059527913
1464.0,,Industriepark,7.0,2220.0,HEIST-OP-DEN-BERG,Antwerpen,,,,,51.061738082702,4.723059527913
1465.0,,Hoofd,1.0,2830.0,Willebroek,Antwerpen,,Y,,,51.081659058613,4.365799093789
1466.0,,Rue 2 Gares,82.0,1070.0,Bruxelles,Bruxelles-Brussel,,,,,50.832223929852,4.326956767741
1467.0,,Tweestationsstraat,82.0,1070.0,Brussel,Bruxelles-Brussel,,,,,50.832223929852,4.326956767741
1468.0,,Frankrijkstraat,,1060.0,Brussel,Bruxelles-Brussel,,,,,50.832995616538,4.330514310458
1469.0,,Lozenberg,20.0,1932.0,Zaventem,Vlaams-Brabant,,,,,50.868616351331,4.459456216758
1470.0,,Frankrijkstraat,85.0,1060.0,Brussel,Bruxelles-Brussel,,,,,50.834966237114,4.332617486051
1471.0,,Rue de France,,1060.0,Bruxelles,Bruxelles-Brussel,,,,,50.832995616538,4.330514310458
1472.0,,Carrefour de l Europe ,,1000.0,Bruxelles,Bruxelles-Brussel,,,,,50.845731781679,4.356515687359
1473.0,,Europkruispunt,2.0,1000.0,Brussel,Bruxelles-Brussel,,,,,50.845731781679,4.356515687359
1474.0,,Avenue de Vilvoorde,450.0,1130.0,Bruxelles,Bruxelles-Brussel,,N,,,50.903264875944,4.410818631021
1476.0,,Internationalelaan,55.0,1070.0,Brussel,Bruxelles-Brussel,,,,,50.813382752618,4.300298459968
1480.0,,Terlochtweg ,1.0,2620.0,Hemiksem,Antwerpen,,Y,,,51.150244609988,4.337503129774
1481.0,,Rue des Azalées ,6.0,7331.0,Baudour,Hainaut,,Y,,,50.478413504374,3.854641732669
1482.0,,Avenue de l Industrie,19.0,1420.0,Braine-l Alleud,Brabant Wallon,,Y,,,50.688335988991,4.329903006707
1483.0,,Industrieweg,30.0,9032.0,Wondelgem,Oost-Vlaanderen,,,,,51.09740685257,3.706490827588
1484.0,,Rue des Chalets,1.0,1082.0,Bruxelles,Bruxelles-Brussel,,,,,50.869455547477,4.287414133683
1485.0,,Noorderlaan,395.0,2030.0,Antwerpen,Antwerpen,,,,,51.286247233528,4.382341617896
1486.0,,Sint Jorisplein,31.0,8620.0,Nieuwpoort,West-Vlaanderen,,y,,,51.130974237402,2.778173341778
1487.0,,Hemmestraat,1.0,8620.0,NIEUWPOORT,West-Vlaanderen,,y,,,51.109721921901,2.762441515346
1488.0,,Leopold II Park,,8620.0,NIEUWPOORT,West-Vlaanderen,,y,,,51.1301355,2.7462318
1489.0,,Toekomstlaan,54.0,2200.0,Herentals,Antwerpen,,,,,51.168184564993,4.789450319851
1490.0,,Toekomstlaan,45.0,2200.0,HERENTALS,Antwerpen,,,,,51.166603067502,4.79013176858
1491.0,,Toekomstlaan,54.0,2200.0,HERENTALS,Antwerpen,,,,,51.168184564993,4.789450319851
1492.0,,Fontainasplein,,1000.0,Brussel,Bruxelles-Brussel,,Y,,,50.845169380042,4.34607578096
1493.0,,Fontainasplein,,1000.0,Brussel,Bruxelles-Brussel,,Y,,,50.845169380042,4.34607578096
1494.0,,Rue de Champles,50.0,1301.0,Bierges,Brabant Wallon,,,,,50.723566469142,4.576483259246
1495.0,,kerkomsesteenweg ,65.0,3370.0,Boutersem,Vlaams-Brabant,,Y,,,50.845381170905,4.841709642132
1496.0,,Chaussée de ala Hulpe,120.0,1000.0,Bruxelles,Bruxelles-Brussel,,Y,,,50.796950157172,4.39884633962
1497.0,,Avenue de l eau vive,1.0,7700.0,Mouscron,Hainaut,,,,,50.744168189934,3.254599366284
1500.0,,Chée de Haecht,1179.0,1130.0,Bruxelles,Bruxelles-Brussel,,,,,50.878962427787,4.411449620692
1502.0,,All2e des Noisetiers,25.0,4845.0,Jalhay,Liège,,,,,50.530815643,5.966471081
1503.0,,Place Van Zeeland,31.0,7060.0,Soignies,Hainaut,,Y,,,50.578781580822,4.068535149129
1505.0,,Chaussée de Couvin,41.0,6460.0,Chimay,Hainaut,,Y,,,50.046831974781,4.323420778068
1506.0,,Avenue Ernst,4.0,4800.0,Petit-Rechain,Liège,,Y,,,50.620314036785,5.834600136538
1507.0,,Tervuursesteenweg,564.0,1982.0,Elewijt,Vlaams-Brabant,,,,,50.975282816671,4.501034144545
1508.0,,Dobbelenbergstraat,8.0,1180.0,Brussel,Bruxelles-Brussel,,,,,50.901895021508,4.422116263035
1509.0,,Kontichsesteenweg ,25.0,2630.0,Aartselaar,Antwerpen,,Y,,,51.143793981124,4.38406745176
1510.0,,Haven 1036 Vitshoekstraat,5.0,2070.0,Zwijndrecht,Antwerpen,,Y,,,51.236545439454,4.306545492404
1511.0,,Havenlaan ,,1000.0,Brussel,Bruxelles-Brussel,,Y,,,50.871912660304,4.355907908811
1513.0,,Champs de Tignée,1.0,4671.0,Barchon,Liège,,Y,,,50.662435614812,5.695962536007
1514.0,,Havenlaan ,,1000.0,Brussel,Bruxelles-Brussel,,N,,,50.871912660304,4.355907908811
1515.0,,Park van Woluwelaan,68.0,1160.0,Brussel,Bruxelles-Brussel,,N,,,50.822703889954,4.426551798557
1516.0,,Tuinbouwersstraat,89.0,1020.0,Brussel,Bruxelles-Brussel,,N,,,50.882612998077,4.350568421348
1523.0,,Zwijnaardsesteenweg ,811.0,9000.0,Gent,Oost-Vlaanderen,,,,,51.016164292123,3.724238082638
1524.0,,Zwijnaardsesteenweg,811.0,9000.0,GENT,Oost-Vlaanderen,,,,,51.016164292123,3.724238082638
1525.0,,Rue de France ,35.0,5600.0,Philippeville,Namur,,Y,,,50.196245475764,4.539101898921
1526.0,,Steenweg op Wortel,,2330.0,Merksplas,Antwerpen,,Y,,,51.362508288901,4.827343940905
1527.0,,Stationsstraat,170.0,3110.0,Rotselaar,Vlaams-Brabant,,,,,50.942109716564,4.729817437348
1528.0,,Laagstraat,50.0,9140.0,Temse,Oost-Vlaanderen,,,,,51.142968382621,4.192182436608
1529.0,,Laagstraat,50.0,9140.0,Temse,Oost-Vlaanderen,,,,,51.142968382621,4.192182436608
1530.0,,Bevrijdingsstraat,1.0,2490.0,Balen,Antwerpen,,Y,,,51.170731783458,5.163813608309
1531.0,,17de Escadrille Lichtvliegwe Straat,14.0,2490.0,BALEN,Antwerpen,,Y,,,51.158606166,5.182956618
1532.0,,Hoolsterberg,36.0,2490.0,BALEN,Antwerpen,,,,,51.159585863892,5.163210111281
1533.0,,Schoolstraat ,,2491.0,Olmen,Antwerpen,,y,,,51.140903828092,5.151345576941
1534.0,,Vredelaan ,1.0,2490.0,BALEN,Antwerpen,,Y,,,51.172086843835,5.175147533964
1535.0,,Weststraat,135.0,9940.0,Sleidinge,Oost-Vlaanderen,,N,,,51.124931681494,3.666966214621
1536.0,,WESTSTRAAT,135.0,9940.0,SLEIDINGE,Oost-Vlaanderen,,N,,,51.124931681494,3.666966214621
1537.0,,Gemeenteplein,1.0,1730.0,Asse,Vlaams-Brabant,,,,,50.910104844212,4.20083167227
1538.0,,Potaarde,14.0,1730.0,ASSE,Vlaams-Brabant,,,,,50.902491603467,4.207169983632
1539.0,,Rond Point Schuman,,1040.0,Bruxelles,Bruxelles-Brussel,,,,,50.842691166592,4.383872117253
1540.0,,Avenue des Communautés,5.0,1140.0,Bruxelles,Bruxelles-Brussel,,,,,50.860078921942,4.423229212138
1541.0,,Rue du Maroquin,1.0,1080.0,Bruxelles,Bruxelles-Brussel,,Y,,,50.856724819567,4.341838585372
1542.0,,Geeraard Van Den Daelelaan,,9000.0,Gent,Oost-Vlaanderen,,,,,51.093923862857,3.754703154621
1543.0,,Rue Joseph Wouters,2.0,4300.0,Waremme,Liège,,Y,,,50.698043993068,5.256488036949
1545.0,,Rouaanse Kaai,4.0,2000.0,Antwerpen,Antwerpen,,,,,51.226541805652,4.401554113441
1546.0,,Industrieweg ,3.0,2390.0,Malle,Antwerpen,,,,,51.295317249044,4.716944258994
1547.0,,Steenovenstraat,,2390.0,MALLE,Antwerpen,,Y,,,51.302023056364,4.71069383524
1548.0,,Sterrenkundelaan,1.0,1210.0,Brussel,Bruxelles-Brussel,,,,,50.850008987286,4.369489142843
1549.0,,JF Willemsstraat,200.0,1800.0,Vilvoorde,Vlaams-Brabant,,,,,50.940848575412,4.423385534633
1552.0,,Tervuursesteenweg,300.0,1820.0,Steenokkerzeel,Vlaams-Brabant,,N,,,50.893036942414,4.512086605892
1553.0,,Alsembergsesteenweg,2.0,1501.0,Buizingen,Vlaams-Brabant,,,,,50.753395608977,4.257621245579
1554.0,,Interleuvenlaan,68.0,3001.0,Leuven,Vlaams-Brabant,,,,,50.851085307473,4.733350409536
1555.0,,Rue de la Cense ,12.0,6830.0,Bouillon,Luxembourg,,Y,,,49.840961745866,5.003943892663
1556.0,,Rue de Waremme ,123.0,4530.0,Villers-le-Bouillet,Liège,,,,,50.58428660528,5.259223051956
1557.0,,Rue du Bosquet,9.0,1348.0,Louvain-la-Neuve,Brabant Wallon,,Y,,,50.659894557046,4.633682372344
1559.0,,Centrumlaan,100.0,9400.0,Ninove,Oost-Vlaanderen,,Y,,,50.832606018909,4.017532106497
1560.0,,Tweestationsstraat,80.0,1070.0,Brussel,Bruxelles-Brussel,,,,,50.832211734183,4.328102741543
1561.0,,Olympiadenlaan ,2.0,1140.0,Brussel,Bruxelles-Brussel,,,,,50.870464519072,4.406142199601
1562.0,,Nijverheidsstraat,16.0,2260.0,Westerlo,Antwerpen,,Y,,,51.140136998678,4.920709750112
1563.0,,Nijverheidsstraat,16.0,2260.0,WESTERLO,Antwerpen,,Y,,,51.140136998678,4.920709750112
1564.0,,Nijverheidsstraat,16.0,2260.0,WESTERLO,Antwerpen,,Y,,,51.140136998678,4.920709750112
1565.0,,Nijverheidsstraat,16.0,2260.0,WESTERLO,Antwerpen,,Y,,,51.140136998678,4.920709750112
1566.0,,Rue Haute,,1000.0,Bruxelles,Bruxelles-Brussel,,Y,,,50.841252767089,4.351747593016
1567.0,,Rue Haute,296.0,1000.0,Bruxelles,Bruxelles-Brussel,,Y,,,50.835604728589,4.347541548474
1568.0,,Rue de l Abricotier,7.0,1000.0,Bruxelles,Bruxelles-Brussel,,Y,,,50.835486543754,4.348925903602
1569.0,,Rue du Cerf ,375.0,1070.0,Bruxelles,Bruxelles-Brussel,,Y,,,50.821550540077,4.314589940158
1570.0,,Rue Médori,70.0,1020.0,Bruxelles,Bruxelles-Brussel,,Y,,,50.88572314516,4.350230882107
1571.0,,Franscontinentaalweg,12.0,2030.0,Antwerpen,Antwerpen,,,,,51.274565836077,4.387317367078
1572.0,,Transcontinentaalweg,10.0,2030.0,Antwerpen,Antwerpen,,,,,51.274459343997,4.38989957999
1573.0,,Steenpoort,5.0,8500.0,Kortrijk,West-Vlaanderen,,,,,50.827163649177,3.269411960276
1574.0,,Mechelsesteenweg,120.0,2860.0,Sint-Katelijne-Waver,Antwerpen,,Y,,,51.058437163503,4.52278132761
1575.0,,Nieuwe weg 1 haven,1053.0,2070.0,Zwijndrecht,Antwerpen,,N,,,51.237047473545,4.319297216981
1576.0,,"Quart.Village4, Clos Mercator",12.0,4000.0,Liège,Liège,,Y,,,50.586851425742,5.564957999422
1577.0,,J. Van Rijswijcklaan,191.0,2020.0,Antwerpen,Antwerpen,,Y,,,51.190694291699,4.399717973731
1578.0,,Maaltekouter,1.0,9051.0,Gent,Oost-Vlaanderen,,Y,,,51.027381499776,3.690817255383
1579.0,,Sportweg,8.0,3560.0,Lummen,Limburg,,,,,50.991315888703,5.189859869513
1580.0,,Schaarbeeklei,499.0,1800.0,Vilvoorde,Vlaams-Brabant,,,,,50.912202457391,4.419600015702
1581.0,,Schaarbeeklei,199.0,1800.0,Vilvoorde,Vlaams-Brabant,,,,,50.919030942451,4.425774293219
1582.0,,Jules Bordet Parc I zone C ,,7180.0,Seneffe,Hainaut,,Y,,,50.510500643318,4.259090129803
1584.0,,"Rue Jules Bordet Park I, zone C",,7180.0,SENEFFE,Hainaut,,Y,,,50.510500643318,4.259090129803
1585.0,,"Rue Jules Bordet, Parc I zone C",,7180.0,SENEFFE,Hainaut,,Y,,,50.510500643318,4.259090129803
1586.0,,"Rue Jules Bordet, Parc I zone C",,7180.0,SENEFFE,Hainaut,,Y,,,50.510500643318,4.259090129803
1587.0,,"Rue Jules Bordet, Parc I, zone C",,7180.0,SENEFFE,Hainaut,,Y,,,50.510500643318,4.259090129803
1588.0,,Esplanade,1.0,1020.0,Brussel,Bruxelles-Brussel,,Y,,,50.899784248741,4.342770569186
1589.0,,Lodderstraat,16.0,2880.0,Bornem,Antwerpen,,,,,51.085734591394,4.278888061773
1590.0,,Donckstraat,116.0,9200.0,Dendermonde,Oost-Vlaanderen,,,,,51.036052159516,4.087302733253
1592.0,,Kouterveldstraat,20.0,1831.0,Diegem,Vlaams-Brabant,,N,,,50.886977035965,4.456347033594
1593.0,,Chée Charlemagne,9.0,6464.0,Baileux,Hainaut,,,,,50.038323629764,4.389979148091
1594.0,,Chée Maïeur Habils,177.0,1430.0,Bierghes,Brabant Wallon,,,,,50.690906425328,4.102826939944
1595.0,,Chée de Mons à Gand ,,7860.0,Lessines,Hainaut,,,,,50.716442563628,3.851159913416
1596.0,,Chée Gabrielle Richet,193.0,7860.0,Lessines,Hainaut,,,,,50.701642511739,3.846320250931
1597.0,,Rue de Chênée,53.0,4031.0,Angleur,Liège,,Y,,,50.609139451109,5.608225718889
1607.0,,Avenue du Bourget,44.0,1130.0,Bruxelles,Bruxelles-Brussel,,,,,50.876969588398,4.422690674859
1609.0,,Avenue Ariane,16.0,1200.0,Bruxelles,Bruxelles-Brussel,,,,,50.858004233268,4.434649303758
1610.0,,BLD MAURICE HERBETTE,,1070.0,Bruxelles,Bruxelles-Brussel,,,,,50.843746229644,4.309499248873
1611.0,,Rue du Moulin a Papier,55.0,1160.0,Bruxelles,Bruxelles-Brussel,,,,,50.809255876572,4.430087723025
1612.0,,RUE COTE D OR,68.0,4000.0,Liège,Liège,,,,,50.611845129454,5.557474971543
1613.0,,Rue de Hermée,195.0,4040.0,Herstal,Liège,,Y,,,50.693121678519,5.625954030839
1617.0,,Rue du Moulin,320.0,4020.0,Liège,Liège,,,,,50.643232758456,5.605256262052
1618.0,,Avenue Eugène Plasky,144.0,1030.0,Bruxelles,Bruxelles-Brussel,,Y,,,50.852119131411,4.396662434748
1620.0,,Rue Melville Wilson,1.0,5330.0,Assesse,Namur,,,,,50.36757157667,5.043011608088
1622.0,,Blvd du Souverain,165.0,1160.0,Bruxelles,Bruxelles-Brussel,,,,,50.816714140036,4.426745336702
1623.0,,Chaussée de Mons,1425.0,1070.0,Bruxelles,Bruxelles-Brussel,,,,,50.810719654342,4.288737300918
1624.0,,Blvd. De la 2ième armée Brittanique ,625.0,1190.0,Bruxelles,Bruxelles-Brussel,,,,,50.802235366219,4.305088382356
1625.0,,Rue de la Loi ,44.0,1040.0,Bruxelles,Bruxelles-Brussel,,,,,50.845236708804,4.370949773291
1626.0,,Rue de la Loi ,44.0,1040.0,Bruxelles,Bruxelles-Brussel,,,,,50.845236708804,4.370949773291
1627.0,,Torhoutstraat ,42.0,8810.0,Lichtervelde,West-Vlaanderen,,,,,51.02965102579,3.139255253197
1628.0,,Dr. Roelenslaan,2.0,8810.0,Lichtervelde,West-Vlaanderen,,Y,,,51.026062188217,3.133780529319
1629.0,,Eugène Plaskylaan ,144.0,1030.0,Bruxelles,Bruxelles-Brussel,,,,,50.852119131411,4.396662434748
1630.0,,Wommelgemsesteenweg,18.0,2110.0,Wijnegem,Antwerpen,,,,,51.226474079875,4.520547131319
1631.0,,Wetstraat,44.0,1040.0,Brussel,Bruxelles-Brussel,,Y,,,50.845236708804,4.370949773291
1632.0,,Wetstraat,44.0,1040.0,Brussel,Bruxelles-Brussel,,Y,,,50.845236708804,4.370949773291
1633.0,,Brits Tweedelegerlaan,625.0,1190.0,Brussel,Bruxelles-Brussel,,,,,50.802235366219,4.305088382356
1634.0,,Zandstraat,15.0,8810.0,Lichtervelde,West-Vlaanderen,,Y,,,51.027562171699,3.134649984136
1635.0,,Golden Hopestraat,15.0,1620.0,Drogenbos,Vlaams-Brabant,,,,,50.797240171021,4.293509872767
1636.0,,Derbystraat - Maaltecenter ,,9051.0,Sint-Denijs-Westrem,Oost-Vlaanderen,,,,,51.024372468278,3.694296890854
1637.0,,E. Van Dorenlaan,144.0,3600.0,Genk,Limburg,,,,,50.983854108948,5.510495745349
1638.0,,Europalaan,27.0,3600.0,Genk,Limburg,,,,,50.966839096959,5.491597068259
1639.0,,Route de Charlemagne,9.0,6464.0,Baileux,Hainaut,,,,,50.038323629764,4.389979148091
1640.0,,Rue Maurice Brosius,47.0,5020.0,Flawinne,Namur,,Y,,,50.454843407709,4.805093465748
1641.0,,Rue Maurice Brosius,47.0,5020.0,Flawinne,Namur,,Y,,,50.454843407709,4.805093465748
1642.0,,Rue de Villers,338.0,6010.0,Couillet,Hainaut,,,,,50.382196351817,4.481177669267
1643.0,,Allée Hof ter Vleesdreef,1.0,1070.0,Bruxelles,Bruxelles-Brussel,,Y,,,50.810054340777,4.288085775584
1644.0,,Allée Hof ter Vleesdreef,1.0,1070.0,Bruxelles,Bruxelles-Brussel,,,,,50.810054340777,4.288085775584
1646.0,,Visbeekstraat,,2300.0,Turnhout,Antwerpen,,,,,51.308196937239,4.915961581723
1647.0,,Rue des Charbonnages,95.0,4420.0,Saint-Nicolas,Liège,,N,,,50.643734939481,5.529776405436
1648.0,,Rue des Sablières,1.0,7522.0,Blandain,Hainaut,,,,,50.622548312746,3.326565469215
1649.0,,Victor Dumonlaan ,28.0,2830.0,Willebroek,Antwerpen,,N,,,51.063744207408,4.370654395023
1650.0,,Kern,18.0,2610.0,Wilrijk,Antwerpen,,Y,,,51.171171623827,4.39346960019
1651.0,,Bist,1.0,2610.0,Wilrijk,Antwerpen,,Y,,,51.281821085737,4.437067650462
1652.0,,Sportvelweg,6.0,3190.0,Boortmeerbeek,Vlaams-Brabant,,,,,50.9829510427,4.566499490555
1653.0,,Rue Dante,75.0,1070.0,Bruxelles,Bruxelles-Brussel,,,,,50.832880861514,4.319623943567
1654.0,,Kapellestraat,75.0,9940.0,Evergem,Oost-Vlaanderen,,,,,51.1139560822,3.711397509888
1655.0,,P. Verhaertstraat,7.0,2250.0,Olen,Antwerpen,,,,,51.167903016865,4.903505307112
1657.0,,Rue de France,,1060.0,Bruxelles,Bruxelles-Brussel,,,,,50.832995616538,4.330514310458
1658.0,,Rue des Alexiens,45.0,1000.0,Bruxelles,Bruxelles-Brussel,,Y,,,50.843012403158,4.350307827979
1661.0,,Iepersestraat,,8890.0,Moorslede,West-Vlaanderen,,Y,,,50.883736979267,3.047534859269
1662.0,,Pater Lievensstraat,20.0,8890.0,Moorslede,West-Vlaanderen,,Y,,,50.892200470386,3.066832759914
1663.0,,Route de Marche,144.0,6600.0,Bastogne,Luxembourg,,,,,50.002455054076,5.695416385887
1664.0,,Rue . Delperdange,,6600.0,Bastogne,Luxembourg,,,,,50.005687938571,5.723193870102
1665.0,,Rue G. Delperdange ,,6600.0,Bastogne,Luxembourg,,,,,50.005687938571,5.723193870102
1666.0,,Rue Rey-Ainé,16.0,7090.0,Braine-le-Comte,Hainaut,,,,,50.608136137299,4.138683799719
1667.0,,Place Sainte Gudule,19.0,1000.0,Bruxelles,Bruxelles-Brussel,,,,,50.847285916492,4.360432412643
1668.0,,Place Sainte Gudule,14.0,1000.0,Bruxelles,Bruxelles-Brussel,,,,,50.847409264588,4.359498216793
1669.0,,Rue de Campinaire,66.0,6250.0,Pont-de-Loup,Hainaut,,,,,50.407778099369,4.540069422005
1672.0,,Rue Beau Site,25.0,4400.0,Flémalle-Haute,Liège,,,,,50.597249721455,5.448067917231
1674.0,,Sportstraat,5.0,9860.0,Oosterzele,Oost-Vlaanderen,,Y,,,50.940783867119,3.794707760119
1675.0,,Technologiepark,38.0,9000.0,Gent,Oost-Vlaanderen,,,,,51.011802,3.7081632
1676.0,,Rue de la Chavée ,57.0,5660.0,Frasnes,Namur,,,,,50.081662847699,4.49684562371
1677.0,,Place St. Jacques,11.0,4000.0,Liège,Liège,,N,,,50.637871567457,5.570070289806
1679.0,,Rue de Louveigné,,4140.0,Sprimont,Liège,,,,,50.513120170869,5.690020148767
1680.0,,Baal,25.0,3980.0,Tessenderlo,Limburg,,Y,,,51.079565468747,5.089331178502
1681.0,,Rue de l Ourthe,1.0,4020.0,Liège,Liège,,,,,50.638766167983,5.583011277757
1682.0,,Kwadestraat,,8800.0,Roeselare,West-Vlaanderen,,Y,,,50.903787252034,3.173775103092
1683.0,,Rue du Coucou,8.0,7640.0,Antoing,Hainaut,,,,,50.57682695734,3.44375779231
1684.0,,Rue du Coucou,8.0,7640.0,ANTOING,Hainaut,,,,,50.57682695734,3.44375779231
1685.0,,Uitbreidingsstraat,3.0,2600.0,Berchem,Antwerpen,,,,,51.196407547777,4.428851307749
1686.0,,Erembodegem -  Dorp,86.0,9320.0,Erembodegem,Oost-Vlaanderen,,,,,50.919686910193,4.05979952964
1687.0,,Erembodegem - Dorp,86.0,9320.0,EREMBODEGEM,Oost-Vlaanderen,,,,,50.919686910193,4.05979952964
1688.0,,Avenue Mounier,51.0,1200.0,Bruxelles,Bruxelles-Brussel,,,,,50.850969260023,4.45427837989
1689.0,,Voldersstraat,24.0,9000.0,Gent,Oost-Vlaanderen,,Y,,,51.052329689754,3.723973968869
1690.0,,Schaliënhoevedreef,201.0,2800.0,Mechelen,Antwerpen,,,,,51.055444312872,4.459081594901
1691.0,,Chaussée de Waterloo,182.0,5002.0,Saint-Servais,Namur,,Y,,,50.472762407955,4.845157286546
1692.0,,Avenue des Déportées,48.0,1367.0,Ramillies,Brabant Wallon,,,,,50.643885121981,4.870233342457
1693.0,,Rue des Déportées,48.0,1367.0,RAMILLIES,Brabant Wallon,,,,,50.643885121981,4.870233342457
1694.0,,Place Communale,22.0,6230.0,Pont-à-Celles,Hainaut,,Y,,,50.51203340113,4.362081212952
1695.0,,Avenue de la Gare,12.0,6238.0,Luttre,Hainaut,,Y,,,50.506027637052,4.385213322463
1696.0,,Rue Célestin Freinet,1.0,6230.0,PONT-À-CELLES,Hainaut,,Y,,,50.508291543308,4.368900370848
1697.0,,Rue Notre-Dame de Grâce ,,6230.0,PONT-À-CELLES,Hainaut,,Y,,,50.509648097507,4.358665191206
1698.0,,Place des Résistants,10.0,6230.0,PONT-À-CELLES,Hainaut,,Y,,,50.48696353506,4.407030761505
1699.0,,Rue de Crupet,45.0,5530.0,Maillen,Namur,,N,,,50.375208999644,4.966759528828
1700.0,,Rue du Vivier,4.0,6500.0,Beaumont,Hainaut,,Y,,,50.240031993128,4.241028094776
1701.0,,Boulevard du Midi,22.0,6900.0,Marche-en-Famenne,Luxembourg,,,,,50.226061078825,5.340236073984
1702.0,,Rue Victor Libert,36.0,6900.0,MARCHE-EN-FAMENNE,Luxembourg,,,,,50.228021354521,5.336318707716
1704.0,,Bolwerklaan,17.0,1210.0,Brussel,Bruxelles-Brussel,,,,,50.855939686697,4.357328426259
1705.0,,Boulevard de Régent,54.0,1000.0,Bruxelles,Bruxelles-Brussel,,,,,50.848379000485,4.368773412131
1706.0,,F. Rooseveltlaan,,9000.0,GENT,Oost-Vlaanderen,,,,,51.044838515206,3.731487366918
1707.0,,Meistraat,4.0,2000.0,Antwerpen,Antwerpen,,,,,51.215916366884,4.410591519731
1708.0,,Van Estbornstraat,13.0,2060.0,Antwerpen,Antwerpen,,,,,51.218732451765,4.417226249146
1709.0,,Kouter ,,9000.0,GENT,Oost-Vlaanderen,,,,,51.04984313858,3.722453121351
1710.0,,Rue de l Ecuyer,11.0,1000.0,Bruxelles,Bruxelles-Brussel,,,,,50.849221465573,4.353291534052
1711.0,,Rue de la Loi,19.0,1040.0,Bruxelles,Bruxelles-Brussel,,,,,50.845175898096,4.369569525295
1712.0,,Boulevard du Jardin Botanique ,,1000.0,Bruxelles,Bruxelles-Brussel,,,,,50.854407557433,4.360926152528
1713.0,,Place Poelaert,,1000.0,Bruxelles,Bruxelles-Brussel,,,,,50.83716599957,4.352932594941
1714.0,,Place Rogier,,1000.0,Bruxelles,Bruxelles-Brussel,,,,,50.856073574049,4.35905363425
1715.0,,Rue de l Ommegang,16.0,1000.0,Bruxelles,Bruxelles-Brussel,,,,,50.852615465807,4.361770248209
1716.0,,Boulevard de Waterloo,,1000.0,Bruxelles,Bruxelles-Brussel,,,,,50.835686200688,4.354426359923
1717.0,,Quai de la Goffe,13.0,4000.0,Liège,Liège,,,,,50.645240727181,5.578268964579
1718.0,,Breendonkdorp,58.0,2870.0,BREENDONK,Antwerpen,,,,,51.042894265169,4.326778903756
1720.0,,Rue de Nerverlée ,,5020.0,SUARLÉE,Namur,,Y,,,50.491120229303,4.801765668821
1721.0,,Chapelle Beaussart,101.0,6032.0,MONT-SUR-MARCHIENNE,Hainaut,,Y,,,50.400602980703,4.419289885284
1722.0,,Neerstraat,103.0,9400.0,NINOVE,Oost-Vlaanderen,,,,,50.809063809369,3.966215413048
1725.0,,Avenue du Stade,,7640.0,Antoing,Hainaut,,N,,,50.568131493472,3.44785024882
1726.0,,De Vincilaan,7.0,1930.0,Zaventem,Vlaams-Brabant,,,,,50.888880398538,4.458464721431
1727.0,,Da Vincilaan,7.0,1930.0,ZAVENTEM,Vlaams-Brabant,,,,,50.888880398538,4.458464721431
1728.0,,Eggestraat,1.0,2800.0,Mechelen,Antwerpen,,,,,51.015289766255,4.464232895739
1729.0,,Rue Chêne,,1000.0,Bruxelles,Bruxelles-Brussel,,,,,50.844466171668,4.35057939837
1730.0,,Rue du Lombard,57.0,1000.0,Bruxelles,Bruxelles-Brussel,,,,,50.845101760163,4.351187843993
1731.0,,Rue du Chëne,22.0,1000.0,Bruxelles,Bruxelles-Brussel,,,,,50.844239262326,4.351352129295
1732.0,,Rue du Lombard,69.0,1000.0,Bruxelles,Bruxelles-Brussel,,,,,50.844903611971,4.351493532002
1733.0,,Lombardstraat,69.0,1000.0,Brussel,Bruxelles-Brussel,,,,,50.844903611971,4.351493532002
1734.0,,Eikstraat,22.0,1000.0,Brussel,Bruxelles-Brussel,,,,,50.844239262326,4.351352129295
1735.0,,Eikstraat,,1000.0,Brussel,Bruxelles-Brussel,,,,,50.844466171668,4.35057939837
1736.0,,Lombardstraat,57.0,1000.0,Brussel,Bruxelles-Brussel,,,,,50.845101760163,4.351187843993
1737.0,,Route de Lennik ,788.0,1070.0,Bruxelles,Bruxelles-Brussel,,Y,,,50.815373957537,4.273282077291
1738.0,,Grand-Route,260.0,7530.0,Gaurain-Ramecroix,Hainaut,,Y,,,50.596028268615,3.486347852036
1739.0,,Rue du Marché,30.0,1210.0,Bruxelles,Bruxelles-Brussel,,Y,,,50.856878501762,4.357218371871
1740.0,,Industriepark West,46.0,9100.0,Sint-Niklaas,Oost-Vlaanderen,,,,,51.1393143987,4.152043044638
1743.0,,Route de Maka,100.0,6880.0,Auby-sur-Semois,Luxembourg,,Y,,,49.811112795309,5.170450737931
1744.0,,Koning Albert I-Laan,188.0,8200.0,Sint-Michiels,West-Vlaanderen,,Y,,,51.182934200011,3.204603084924
1745.0,,Kwatrechtsteenweg,160.0,9230.0,Wetteren,Oost-Vlaanderen,,Y,,,50.993121350647,3.841240985245
1746.0,,Rue de Cognebeau,46.0,7060.0,Soignies,Hainaut,,,,,50.57744429008,4.065090941296
1748.0,,Place de Belle-Maison,2.0,4570.0,Marchin,Liège," entrée, gauche",,,,50.480510010608,5.225923007925
1749.0,,Rue de France,,6750.0,Musson,Luxembourg, Salle de Sport,,,,49.554991122601,5.691067798568
1750.0,,Maastrichtersteenweg,441.0,3700.0,Tongeren,Limburg, glvl bur personeel,Y,,,50.789137343312,5.513616914634
1751.0,,Mechelsesteenweg,455.0,1950.0,Kraainem,Vlaams-Brabant, 8e verd,,,,50.819469564976,4.47693319734
1752.0,,Machelenstraat,169.0,9800.0,Deinze,Oost-Vlaanderen," refter, thv adm gedeelte",,,,50.974809993512,3.511959008645
1753.0,,Parklaan,3.0,9400.0,Ninove,Oost-Vlaanderen,kassa,Y,,,50.829776791311,4.020146505917
1755.0,,Route de Paliseul,18.0,6830.0,Bouillon,Luxembourg," glvl, kleedkamer",,,,49.802825092246,5.073753579088
1760.0,,Av. E. Van Nieuwenhuyse,2.0,1160.0,Bruxelles,Bruxelles-Brussel, rez - fond du couloir,Y,,,50.813249487962,4.420659655137
1761.0,,Av. E. Van Nieuwenhuyse,2.0,1160.0,Bruxelles,Bruxelles-Brussel,"2e étage, fond couloir",Y,,,50.813249487962,4.420659655137
1762.0,,Av. E. Van Nieuwenhuyse,2.0,1160.0,Bruxelles,Bruxelles-Brussel, 1 ière étage infirmerie,N,,,50.813249487962,4.420659655137
1763.0,,Battelsesteenweg,315.0,2800.0,Mechelen,Antwerpen, inkom gebouw,Y,,,51.032530083802,4.457057483707
1764.0,,Mechelsesteenweg,586.0,1800.0,Vilvoorde,Vlaams-Brabant, glvl atrium receptie HQ,Y,,,50.943473158844,4.442753933576
1765.0,,Mechelsesteenweg,586.0,1800.0,Vilvoorde,Vlaams-Brabant, glvl EHBO lokaal NWHS,N,,,50.943473158844,4.442753933576
1766.0,,Rue de la Brasserie,4.0,5530.0,Purnode,Namur, rdc couloir laboratoire,Y,,,50.311242337484,4.943709692426
1767.0,,Van Frachenlaan,,1820.0,Steenokkerzeel,Vlaams-Brabant,"ingang, extern",Y,,,50.9129557719,4.509931082053
1768.0,,Orchideeënlaan,19.0,1820.0,STEENOKKERZEEL,Vlaams-Brabant,"buitenmuur, dicht bij ingang",Y,,,50.920639387761,4.504985206064
1769.0,,Vanheylenstraat,,1820.0,STEENOKKERZEEL,Vlaams-Brabant, 15 meter van ingang,Y,,,50.917825550939,4.476770212498
1770.0,,Rue Maïeur Habils,177.0,1430.0,BIERGHES,Brabant Wallon, poste de commande,,,,50.690906425328,4.102826939944
1771.0,,Chaussée de Mons à Gand,,7860.0,Lessines,Hainaut, fond réfectaire,,,,50.716442563628,3.851159913416
1773.0,,Smalle Heerweg,29.0,9041.0,Oostakker,Oost-Vlaanderen,glvl tss burelen en magazijn,,,,51.087525720283,3.785079803218
1774.0,,Wegvoeringstraat,21.0,9230.0,Wetteren,Oost-Vlaanderen, 2e verd. Hoofdgebouw links,Y,,,51.007440197751,3.887258555688
1775.0,,Arbedkaai,3.0,9042.0,Sint-Kruis-Winkel,Oost-Vlaanderen, controlekamer 1e verd,Y,,,51.1531038448,3.788257969445
1776.0,,Electronicalaan,,2610.0,Wilrijk,Antwerpen, ingang productie,Y,,,51.158552895005,4.373947525479
1777.0,,Dynamicalaan,18.0,2610.0,Wilrijk,Antwerpen, ingang productie,Y,,,51.156782201099,4.374892620544
1778.0,,Terbekenhofdreef,30.0,2610.0,Wilrijk,Antwerpen, ingang productie,Y,,,51.155730817074,4.374247130181
1779.0,,Rooienberg,,2570.0,Duffel,Antwerpen, buiten aan ingang,,,,51.098932638272,4.484294557494
1781.0,,Ralisweg,17.0,3390.0,Tielt,Vlaams-Brabant," inkomhal, glvl",,,,50.940096006235,4.911130994983
1782.0,,Aalstersestraat,142.0,9280.0,Wieze,Oost-Vlaanderen, gevel portiersloge,Y,,,50.979960337738,4.092753987803
1783.0,,L. Van Regenmortellei,6.0,2150.0,Borsbeek,Antwerpen, gevel buiten,Y,,,51.195192649586,4.486757332686
1784.0,,Dijleweg ,,2820.0,Rijmenam,Antwerpen,zij ingang spelers- en inkomhal,Y,,,51.004386812803,4.566215552051
1785.0,,Mechelsbroekstraat,4.0,2820.0,Bonheiden,Antwerpen, naast inkompoort,Y,,,51.027604416491,4.523103947064
1786.0,,Morrensplein,10.0,2820.0,Bonheiden,Antwerpen, tss biblioth en cultuurcentr,Y,,,51.025388283201,4.548805795866
1787.0,,Eisenhouwerlaan,,2820.0,Bonheiden,Antwerpen, inkomloket voetbal,Y,,,51.022173710916,4.557145051613
1788.0,,Waversesteenweg,,2820.0,Bonheiden,Antwerpen, inkomhal sporthal,Y,,,51.032054665819,4.551130182063
1789.0,,St. Maartensberg ,,2820.0,Bonheiden,Antwerpen,nst inrijpoort gemeenschpscentr,Y,,,51.000776542258,4.583118805397
1791.0,,Covelierstraat,15.0,2600.0,Berchem,Antwerpen, 3e verd infobalie,,,,51.199342622606,4.416179001685
1792.0,,Kortrijksesteenweg,,9051.0,Gent,Oost-Vlaanderen, glvl printlokaal,,,,51.024762833855,3.707000738711
1793.0,,Rue du Château,,5300.0,Seilles,Namur,rez local courier,,,,50.498269162115,5.077138628417
1794.0,,Rue du Val Notre Dame,300.0,4520.0,Moha,Liège,cab operateur fours,,,,50.557438790568,5.176974908623
1795.0,,Route de Ramioul,1.0,4480.0,Engis,Liège, rez vers bur. maintenance,Y,,,50.580867760759,5.413547755596
1796.0,,Rue du Château,13.0,5300.0,SEILLES,Namur,caine operateur four,,,,50.497225914382,5.076890506352
1797.0,,Rue de la Chavée,57.0,5660.0,Frasnes,Namur," vestiaire, rdc, hall entrée",,,,50.081662847699,4.49684562371
1809.0,,Rue du Commerce,19.0,1400.0,Nivelles,Brabant Wallon, accueil,Y,,,50.588953104144,4.365502458236
1810.0,,Liefdestraat,10.0,3300.0,Tienen,Vlaams-Brabant,ingang,Y,,,50.808647186872,4.944339257173
1811.0,,Meester van der Borghtstraat,150.0,2580.0,Putte,Antwerpen,ingang,,,,51.027062149265,4.656278139286
