id,type,address,number,postal_code,municipality,province,location,public,available,hours,latitude,longitude
4498.0,,Rue Darchis ,35.0,4000.0,Liège,Liège,hall entrée,,,,50.636966405733,5.564703943936
4499.0,,Avenue Franklin,5.0,1300.0,Wavre,Brabant Wallon,local de préparation,,,,50.735384491615,4.583635369588
4500.0,,Place de la Station ,12.0,7911.0,Frasnes-lez-Buissenal,Hainaut,hall entrée,,,,50.663559837576,3.614069616242
4501.0,,Avenue du Castillon ,71.0,1450.0,Chastre,Brabant Wallon,,,,,50.610959371836,4.644859221133
4502.0,,Industrieweg ,18.0,2850.0,Boom,Antwerpen,"glvl,lokaal supervisors",,,,51.101020039572,4.35457119921
4503.0,,Koningin Astridlaan ,12.0,2830.0,Willebroek,Antwerpen,"inkomhal,links",,,,51.050369833154,4.338677685866
4504.0,,Rue Tombeek ,30.0,1331.0,Rosières,Brabant Wallon,accueil,,,,50.742743006322,4.558612203486
4505.0,,Rue Nicolas Baudine ,10.0,1440.0,Braine-le-Château,Brabant Wallon,accueil,,,,50.672803692626,4.242178467081
4506.0,,Chaussée Longchamps ,2.0,1300.0,Wavre,Brabant Wallon,accueil,,,,50.728789903563,4.635309467388
4508.0,,Haandorpweg,1.0,9130.0,Beveren,Oost-Vlaanderen,"glvl, receptie",,,,51.259732843032,4.222887812286
4509.0,,Place du Bicentenaire ,,7120.0,Haulchin,Hainaut,"local, proximité pétanque",,,,50.383418161512,4.082801401776
4509.0,,Place du Bicentenaire,,1000.0,Brussel,Bruxelles-Brussel,"local, proximité pétanque",,,,50.89151801583,4.344368662846
4510.0,,Boulevard d Avroy,42.0,4000.0,Liège,Liège,rez de ch,,,,50.63846257545,5.567699971408
4511.0,,Spanjestraat ,181.0,8800.0,Roeselare,West-Vlaanderen,"buiten, kant looppiste",,,,50.946716368639,3.140452943342
4512.0,,Izegemseaardeweg ,30.0,8800.0,Roeselare,West-Vlaanderen,"buiten, aan inkom sporthal",,,,50.966676613766,3.145160890718
4514.0,,H. Spilleboutdreef ,33.0,8800.0,Roeselare,West-Vlaanderen,inkom cafetaria via zwembad,,,,50.936333914723,3.122073357516
4516.0,,Rue de Marbais ,37.0,1495.0,Villers-la-Ville,Brabant Wallon,"hall d entrée,rez",,,,50.572515731013,4.534686899062
4517.0,,Rue Haute ,11.0,6567.0,Merbes-le-Château,Hainaut,salle de coupe dans la cour de l éco,,,,50.325463786873,4.164088258596
4518.0,,Rue Neuve,75.0,6061.0,Montignies-sur-Sambre,Hainaut,rez de l entrée club,,,,50.409455318195,4.455478584606
4519.0,,Rue de la Trondeloire ,18.0,7536.0,VaulxTournai),Hainaut,couloir des vest/sanita,,,,50.59060949394,3.433082533736
4520.0,,Boulevard de l impératrice ,13.0,1000.0,Bruxelles,Bruxelles-Brussel,3 étage-infirmerie,,,,50.846205824449,4.356953671368
4521.0,,Rue Américaine ,101.0,1050.0,Bruxelles,Bruxelles-Brussel,entrée magasin,,,,50.82295270675,4.359474193472
4522.0,,Rue Granbonpré ,11.0,1435.0,Mont-Saint-Guibert,Brabant Wallon,1er étage,,,,50.6603365348,4.642859466673
4523.0,,Leo Baekelandstraat,5.0,2950.0,Kapellen,Antwerpen,onthaal,,,,51.298012743377,4.434711246022
4524.0,,Heesterveldweg,14.0,3700.0,Tongeren,Limburg,glvl,,,,50.788845988358,5.529040035572
4525.0,,Vlamingstraat,28.0,8560.0,Wevelgem,West-Vlaanderen,"EHBO lokaal CUP,via bureau",,,,50.81017960832,3.212242854392
4526.0,,Chaussée de Wavre ,2057.0,1160.0,Bruxelles,Bruxelles-Brussel,piste d athlétisme,,,,50.809339993079,4.44379245138
4528.0,,Rue des Amours ,5.0,6470.0,Sivry-Rance,Hainaut,"rez sur le pignon du ""ClubHouse""",,,,50.168318723829,4.182277699988
4529.0,,Parklaan ,7.0,2610.0,Wilrijk,Antwerpen,"recepti, glvl",,,,51.172686108003,4.427543042427
4530.0,,Rue d Austerlitz,56.0,5580.0,Rochefort,Namur,"rez,endroit accessible par tou",,,,50.161397210397,5.21447140035
4531.0,,Rue Fraiche ,1.0,4030.0,Chênée,Liège,"refectoire, rez de ch",,,,50.618203264018,5.619093191633
4532.0,,Rue des Coudriers ,5.0,4031.0,Angleur,Liège,,,,,50.610878989385,5.599387840181
4533.0,,Rue de l Ourthe,1.0,4020.0,Liège,Liège,rez de ch,,,,50.638766167983,5.583011277757
4534.0,,Rue St Isidore ,3.0,6900.0,Marche-en-Famenne,Luxembourg,"1er étage,local production",,,,50.204508020638,5.310325503959
4535.0,,Zeedijk,24.0,8380.0,Zeebrugge,West-Vlaanderen,buitenzijde - dijk,,,,51.328789666914,3.178757654121
4536.0,,Rue Trieu Kaisin ,134.0,6061.0,Montignies-lez-Lens,Hainaut,labo bio mécanique local H03,,,,50.408731708493,4.480657067374
4537.0,,Rue des Postes,101.0,7090.0,Braine-le-Comte,Hainaut,hall d entrée,,,,50.608288353859,4.129162768806
4538.0,,Rue de Belle-Vue ,32.0,7100.0,La,Hainaut,1° étag couloir près local 111,,,,50.71641,4.4138
4539.0,,Chaussée de Binche ,159.0,7000.0,Mons,Hainaut,hall entrée HE2,,,,50.45107587528,3.983939446122
4540.0,,Rue de Bruxelles,,6220.0,Fleurus,Hainaut,"bureau prof, Local 08",,,,50.485217009663,4.551301872285
4541.0,,Rue de l Hôpital ,27.0,6060.0,GillyCharleroi),Hainaut,hall rotonde auditoire,,,,50.418979716682,4.480325144008
4542.0,,Rue Tour Saint Pierre,9.0,7900.0,Leuze-en-Hainaut,Hainaut,hall entrée principale,,,,50.600308445562,3.623162137169
4543.0,,Rue de l Hocaille ,10.0,1348.0,Louvain-la-Neuve,Brabant Wallon,rez de ch Atrium,,,,50.670146756186,4.609502677158
4544.0,,Quai des Salines ,28.0,7500.0,Tournai,Hainaut,hall près du secrétariat,,,,50.611446795412,3.384722298698
4545.0,,Jules Bordetlaan,164.0,1140.0,Brussel,Bruxelles-Brussel,3de verd/tussenhal 3 bedrijv,,,,50.870628175731,4.418137625055
4546.0,,Raketstraat,40.0,1130.0,Brussel,Bruxelles-Brussel,"ingang aan receptie, glvl",,,,50.877679870873,4.416617986009
4547.0,,Theodorstraat,108.0,1090.0,Brussel,Bruxelles-Brussel,"glvl,achtermuur onthaal",,,,50.875983499398,4.327426321957
4549.0,,Rue Général de Gaulle,53.0,1310.0,La hulpe,Brabant Wallon,entrée du bas du centre,,,,50.738532765875,4.485826415398
4550.0,,Rue de la Place,2.0,5031.0,Gembloux,Namur,"rez, au fond du couloir",,,,50.581996375966,4.767267277822
4551.0,,Chaussée de Charleroi ,145.0,5030.0,Gembloux,Namur,,,,,50.561175686569,4.682775430699
4552.0,,Rue Fénique,41.0,7972.0,Quevaucamps,Hainaut,"club house,rez de ch",,,,50.526675231758,3.672795185731
4553.0,,Boulevard Général Descamp ,1.0,6500.0,Beaumont,Hainaut,"1° étage,sur palier",,,,50.238458332717,4.237929891906
4554.0,Appareil fixe-Vast apparaat,chaussée de l herbatte,85.0,1300.0,Wavre,Brabant Wallon,Centre Sportif - Grez Doiceau,Oui-Ja,Non-Nee,,50.723847472446,4.618797872504
4555.0,,Chemin du Meunier,40.0,1330.0,Rixensart,Brabant Wallon,entrée par l arrière du bâtim,,,,50.706466236068,4.533850544718
4556.0,,Av. Charles Schaller ,50.0,1160.0,Bruxelles,Bruxelles-Brussel,"rez,couloir des vestiaire",,,,50.805957937057,4.441211076659
4558.0,,Avenue Edgard Frankignoul ,2.0,1480.0,Saintes,Brabant Wallon,atelier - magasin,,,,50.705656940446,4.175194447942
4559.0,,Avenue Edgard Frankignoul,2.0,1480.0,Saintes,Brabant Wallon,bureau,,,,50.705656940446,4.175194447942
4560.0,,uitbreidingstraat,72.0,2600.0,Berchem,Antwerpen,inkomhall,,,,51.192762652036,4.416591247738
4562.0,,Haachtsesteenweg ,1470.0,1130.0,Brussel,Bruxelles-Brussel,toiletten H2,,,,50.882177181021,4.418300820709
4563.0,,Haachtsesteenweg ,1470.0,1130.0,Brussel,Bruxelles-Brussel,hoofdingang,,,,50.882177181021,4.418300820709
4564.0,,Rue du Faing,16.0,6810.0,Chiny,Luxembourg,"rez,hall d entrée côté cafétaria",,,,49.693538066788,5.406653688013
4565.0,,Rue de Moresnet ,157.0,4851.0,Gemmenich,Liège,"hall d entrée,en haut escalier",,,,50.735409008682,5.990669078189
4566.0,,Rue de Sauvian,1.0,6850.0,Paliseul,Luxembourg,dans le club house,,,,49.901244195025,5.131391503803
4567.0,,Rue de la Procession ,49.0,7780.0,Comines,Hainaut,piscine,,,,50.766374105944,2.998718983959
4569.0,,Avenue de l Industrie,21.0,1420.0,Braine-l Alleud,Brabant Wallon,entrepot,,,,50.688517247647,4.328234337423
4570.0,,Avenue de l Industrie ,21.0,1420.0,Braine-l Alleud,Brabant Wallon,hall bureau,,,,50.688517247647,4.328234337423
4571.0,,Rue Jules Beresse ,20.0,7031.0,Villers-Saint-Ghislain,Hainaut,cafetaria,,,,50.431185653634,4.040449570883
4572.0,,Rue Rene Menada ,12.0,1320.0,Hamme-Mille,Brabant Wallon,vestiaires,,,,50.77984969168,4.713043488894
4573.0,,Parc Artisanal de Blegny,,4671.0,Barchon,Liège,hall accueil,,,,50.658870560539,5.700655940146
4574.0,,Rue de Merckhof ,110.0,4880.0,Aubel,Liège,hall accueil,,,,50.704898629666,5.869343292839
4575.0,,Rue Place d Arenberg ,20.0,6200.0,Châtelineau,Hainaut,local direction,,,,50.411671493394,4.519975736979
4576.0,,Rue du Palais ,42.0,1030.0,Bruxelles,Bruxelles-Brussel,hall accueil,,,,50.860106624132,4.367690470241
4577.0,,Minervastraat ,8.0,1930.0,Zaventem,Vlaams-Brabant,hall accueil,,,,50.880114478469,4.451259972738
4578.0,,Quai du Halage3 ,3.0,4400.0,Flémalle,Liège,local des toilettes,,,,50.589313248908,5.439205000198
4579.0,,Rue de la Digue,20.0,4400.0,Flémalle,Liège,entrepot,,,,50.594352309737,5.474248011068
4580.0,,Rue Renory ,478.0,4031.0,Angleur,Liège,accueil,,,,50.60608353494,5.560005384292
4581.0,,Rue Ernest Solvay ,208.0,4000.0,Liège,Liège,accueil,,,,50.610586670512,5.546901033049
4582.0,,Rue Sart d Avette,110.0,4400.0,Flémalle,Liège,accueil,,,,50.607928810924,5.417907231216
4584.0,,Chaussée de Liège ,1103.0,5101.0,Lives-sur-Meuse,Namur,accueil,,,,50.479562604092,4.960122464672
4585.0,,Rue des Viaux,1.0,5100.0,Naninne,Namur,accueil,,,,50.425640018855,4.918379413392
4586.0,,Rue Noiret,6.0,5660.0,Couvin,Namur,accueil,,,,50.043715191526,4.461232455831
4587.0,,Rue des Templiers s/n ,,7080.0,Frameries,Hainaut,"rez,club house ROC",,,,50.399943550021,3.899856075972
4588.0,,Stationsstraat z/nr  ,,9860.0,Scheldewindeke,Oost-Vlaanderen,scheidsrechterlokaal,,,,50.936354466194,3.776877302975
4589.0,,Hanenstraat ,148.0,9255.0,Buggenhout,Oost-Vlaanderen,"inkomhal,glvl",,,,51.010357058146,4.187619026838
4590.0,,De Tyraslaan ,109.0,1120.0,Brussel,Bruxelles-Brussel,onmiddellyk aan de inkombalie,,,,50.909412708557,4.393547048976
4593.0,,Rue du Château ,27.0,1480.0,Clabecq,Brabant Wallon,,,,,50.688181049511,4.223106160864
4594.0,,A. Algoetstraat ,77.0,1750.0,Sint-Kwintens-Lennik,Vlaams-Brabant,"buitengevel sporthal,ingang",,,,50.80742845815,4.162786632852
4595.0,,Vesten ,90.0,9120.0,Beveren-Waas,Oost-Vlaanderen,showroom,,,,51.217077128225,4.270321169994
4597.0,,Valkestraat ,18.0,8620.0,Nieuwpoort,West-Vlaanderen,ingang De City,,,,51.132582137889,2.751375140041
4598.0,,Elf Juliwijk,6.0,8620.0,Nieuwpoort,West-Vlaanderen,kinderboerderij,,,,51.134726647816,2.74027289019
4599.0,,Rue Jean Kurtz,64.0,4801.0,Stembert,Liège,étage O-couloir vers pistes,,,,50.579947008942,5.891868094416
4600.0,,Rue du Tonnelet ,76.0,4900.0,Spa,Liège,étage AO,,,,50.496271467067,5.891817270728
4601.0,,Rue Traverse ,9.0,4980.0,Trois-Ponts,Liège,niveau O,,,,50.372113029078,5.86935291864
4602.0,,Rue Adolphe Bastin,7.0,4900.0,Spa,Liège,réfectoire sous-sol,,,,50.490685682972,5.857969553144
4603.0,,Rue Alphonse Collette ,25.0,4910.0,Theux,Liège,"rez de ch,buvette",,,,50.556552396713,5.899563961316
4604.0,,Rue St Médard,1.0,6560.0,Solre-sur-Sambre,Hainaut,au sous-sol,,,,50.309098581927,4.152500361275
4605.0,,Rue J.B. Stouffs ,12.0,1332.0,Genval,Brabant Wallon,"rez de ch,salle de réunion",,,,50.71496973168,4.498431935402
4606.0,Appareil fixe-Vast apparaat,Rue de Rixensart ,,1332.0,Genval	,Brabant Wallon,Anciennes papeteries ,Non-Nee,Non-Nee,,50.722671876081,4.514822308525
4607.0,,Kasteeldreef ,61.0,2900.0,Schoten,Antwerpen,"park,ingang resto De Riddershoeve",,,,51.244745120054,4.489111557831
4608.0,,Rue Lütticher,65.0,4721.0,Neu-Moresnet,Liège,appretur atelier,,,,50.720256371759,6.025257756014
4609.0,,Spiegel,15.0,9860.0,Oosterzele,Oost-Vlaanderen,"1ste verd,rechtover trappenhal",,,,50.941997692428,3.788263920596
4612.0,,Chaussée de Nivelle ,37.0,6041.0,Gosselies,Hainaut,,,,,50.469745282418,4.430866044168
4613.0,,Rue des Français,147.0,6020.0,Dampremy,Hainaut,hall d entrée,,,,50.422972155333,4.434290021886
4614.0,,Rue des Couturelles,2.0,6044.0,Roux,Hainaut,"1° étage, hall d entrée",,,,50.448182225436,4.389488950553
4615.0,,Place Albert 1er,38.0,6030.0,Marchienne-au-Pont,Hainaut,local des maitres nageurs,,,,50.401096297615,4.480531422645
4616.0,,Place Albert 1er,38.0,6030.0,Marchienne-au-Pont,Hainaut,à l étage à l entrée sall omni,,,,50.401096297615,4.480531422645
4617.0,,Place Jules Destrée,15.0,6060.0,GillyCharleroi),Hainaut,"rez de ch,salle omnisport",,,,50.423227671709,4.478799120736
4618.0,,Place Jules Destrée ,15.0,6060.0,GillyCharleroi),Hainaut,à l entrée sol bord piscine,,,,50.423227671709,4.478799120736
4619.0,,Rue du Fort,80.0,6000.0,Charleroi,Hainaut,"salle de gym, rez de ch",,,,50.41778877397,4.443393137512
4620.0,,Rue du Poirie ,226.0,6061.0,Montignies-sur-Sambre,Hainaut,"piscine,local des maitres-nageu",,,,50.408840002682,4.465891758197
4621.0,,Rue du Poirie ,226.0,6061.0,Montignies-sur-Sambre,Hainaut,DOJO,,,,50.408840002682,4.465891758197
4622.0,,Rue du Poirie ,226.0,6061.0,Montignies-sur-Sambre,Hainaut,"salle omnisport,à gauche l entr",,,,50.408840002682,4.465891758197
4623.0,,Rue des Monts ,,6001.0,Marcinelle,Hainaut,"rez de ch,local gardiens",,,,50.398918017427,4.435982964191
4624.0,,Rue de l Asie,,6001.0,Marcinelle,Hainaut,"rez,local gardiensaccès par s omni",,,,50.378362913495,4.437708705957
4625.0,,Terhulpsesteenweg ,120.0,1000.0,Brussel,Bruxelles-Brussel,"glvl,rechts vd hoofdingang",,,,50.796950157172,4.39884633962
4626.0,,Berchemstadionstraat,73.0,2600.0,Berchem,Antwerpen,"hoofdingang,glvl",,,,51.188051393809,4.438134666736
4628.0,Appareil fixe-Vast apparaat,Rue des Gottes,8.0,4051.0,Vaux-Sous-Chèvrement,Liège,La Ferme de Chevremont - in de cafetaria,Non-Nee,Non-Nee,,50.601153655566,5.650172070105
4631.0,,Bevrijdingslaan ,,8700.0,Tielt,West-Vlaanderen,"receptie,showroom glvl",,,,50.999531993902,3.352500455247
4632.0,,Bevrijdingslaan,,8700.0,Tielt,West-Vlaanderen,magazijn,,,,50.999531993902,3.352500455247
4633.0,,Jules Bordetlaan ,48.0,8670.0,Koksijde,West-Vlaanderen,"glvl, kleine zaal rechts",,,,51.111951116,2.679322348
4634.0,,Rue des Coquelicots ,,4020.0,Liège,Liège,face à la récept sous vascal,,,,50.635707455073,5.614232217035
4635.0,,Rue du Bosquet ,15.0,1348.0,Louvain-la-Neuve,Brabant Wallon,"rez,proximiti",,,,50.659277104148,4.629839353557
4636.0,,Rue Vieille,55.0,5570.0,Baronville,Namur,"salle des fêtes,rez de ch",,,,50.127462069563,4.942757340587
4637.0,,Rue de l Agace,5.0,7061.0,CasteauMons),Hainaut,sous le préau de la cour de récré,,,,43.499484,-87.848432
4638.0,,Rue de la Place,,7062.0,Naast,Hainaut,"rez,couloir accès sal polyva",,,,50.554068273594,4.099743689127
4639.0,,Place Van Zeeland,33.0,7060.0,Soignies,Hainaut,"rez,hall entrée",,,,50.577893315268,4.069179719983
4640.0,,Rue Joseph Quintart ,127.0,7063.0,Chaussée-Notre-Dame-Louvignies,Hainaut,"hall entrée,rez",,,,50.58989191921,3.996551616116
4641.0,,Rue Centrale,8.0,7063.0,Neufvilles,Hainaut,sous le préau de la cour récréatio,,,,50.566336466263,3.999003406614
4642.0,,Rue Noblehaye ,113.0,4653.0,Bolland,Liège,"vestiaire de l arbitre,rez de ch",,,,50.647908401095,5.769754537825
4643.0,,Place Terdelt ,1.0,1030.0,Bruxelles,Bruxelles-Brussel,,,,,50.868577752667,4.39042763989
4644.0,,Boulevard Ernest Solvay ,475.0,4000.0,Liège,Liège,rez de ch de l établi,,,,50.659451489644,5.597225057705
4645.0,,Henry Fordlaan ,1.0,3600.0,Genk,Limburg,"ingang Munsterenstr,EHBO lokaal",,,,50.926396539866,5.520190338381
4646.0,,Rue du 28 Juin ,102.0,6180.0,Courcelles,Hainaut,salle paroisiale,,,,50.47244211,4.341068032
4647.0,,Rue du Calvaire ,29.0,6061.0,Montignies-sur-Sambre,Hainaut,"salle de gym, rez de ch",,,,50.423254361573,4.475152755377
4648.0,,Rue d Oignies ,3.0,6250.0,Aiseau,Hainaut,,,,,50.426020054345,4.595387468392
4649.0,,Rue Ernest Solvay ,339.0,4000.0,Liège,Liège,hall d entrée bât. Principal,,,,50.610192385786,5.54606728514
4650.0,,Rue St Exupéry II ,14.0,6041.0,Gosselies,Hainaut,3ième étage centre,,,,50.470374655198,4.46317325554
4651.0,,Rue Liège Airport ,50.0,4460.0,Grâce-Hollogne,Liège,3ème étage,,,,50.634397226681,5.481028745641
4652.0,,Sint-Jansstraat ,132.0,9982.0,Sint-Laureins,Oost-Vlaanderen,n tunneltje - onthaal,,,,51.263469705015,3.580471679373
4654.0,,Schupstraat ,9.0,2018.0,Antwerpen,Antwerpen,"blok B,2° verdoffice",,,,51.21407707744,4.418489329712
4655.0,,Schupstraat ,9.0,2018.0,Antwerpen,Antwerpen,"blok +C,2° verdfactory",,,,51.21407707744,4.418489329712
4656.0,,Waversesteenweg ,1100.0,1180.0,Brussel,Bruxelles-Brussel,,,,,50.823358768049,4.402931930685
4657.0,,Rue Faubourg de Bruxelles ,105.0,6041.0,Gosselies,Hainaut,local éducateurs,,,,50.473332209733,4.436894480342
4658.0,,Boulevard Pacheco,32.0,1000.0,Bruxelles,Bruxelles-Brussel,"RDC,poste de garde sécurité",,,,50.850934265578,4.361163649876
4659.0,,Interleuvenlaan ,15.0,3001.0,Heverlee,Vlaams-Brabant,"receptie,1° verd",,,,50.846876562858,4.731698749038
4660.0,,Avenue des Pleiades ,73.0,1200.0,Brussel,Bruxelles-Brussel,"2de verd,rechts voor lift",,,,50.855630017284,4.422647256601
4661.0,,Brusselsesteenweg ,288.0,3090.0,Overijse,Vlaams-Brabant,printerlokaal achter recept,,,,50.780724259457,4.517332671451
4662.0,,Rue Carli ,13.0,1140.0,Bruxelles,Bruxelles-Brussel,à droite de la réception,,,,50.879797474891,4.390192695144
4663.0,,Avenue Herman Debroux,46.0,1160.0,Bruxelles,Bruxelles-Brussel,réception 6ième étage,,,,50.864874269674,4.377612022275
4664.0,,Place Antoine Gilson ,6.0,1170.0,Bruxelles,Bruxelles-Brussel,façade,,,,50.79826527778,4.416758885801
4665.0,,Rue Grates,3.0,1170.0,Bruxelles,Bruxelles-Brussel,sur la façade du n° 3,,,,50.809010207098,4.402656752804
4666.0,,Avenue des Nymphes,1.0,1170.0,Bruxelles,Bruxelles-Brussel,"en face de la piste,niv escal",,,,50.805897168259,4.413742238848
4667.0,,Rue Lambert Vandervelde ,31.0,1170.0,Bruxelles,Bruxelles-Brussel,couloir principal,,,,50.81125739534,4.398304533399
4668.0,,Quai Saint Brice ,35.0,7500.0,Tournai,Hainaut,,,,,50.609149188329,3.390329824067
4669.0,,Rue des Blancs Arbres ,1.0,7911.0,Hacquegnies,Hainaut,local derrière la récepti,,,,50.64340215672,3.599478315376
4670.0,,Chaussée d Ixelles,213.0,1050.0,Bruxelles,Bruxelles-Brussel,"rez,sur le mur de gauche",,,,50.831814012878,4.367433145813
4671.0,,Boulevard du Souverain,36.0,1170.0,Bruxelles,Bruxelles-Brussel,"4° étage,en face accueil",,,,50.803494579533,4.42479419728
4672.0,,Avenue de Villas,3.0,4180.0,Hamoir,Liège,local de remplissage,,,,50.429889141989,5.534688598459
4673.0,,Avenue des Villas,3.0,4180.0,Hamoir,Liège,couloir entr s échage et surge,,,,50.429889141989,5.534688598459
4674.0,,Klein Opperstraat,8.0,3201.0,Langdorp,Vlaams-Brabant,veranda clubhuis,,,,51.018216174062,4.891735472548
4675.0,,Bergensesteenweg,1024.0,1070.0,Brussel,Bruxelles-Brussel,"1° verd, kopielokaal",,,,50.823486885439,4.295701237533
4676.0,,Jan Samijsstraat ,9.0,9050.0,Gentbrugge,Oost-Vlaanderen,"1ste verd, kopielokaal",,,,51.041294746586,3.752039598186
4677.0,,Boulevard des Invalides,214.0,1160.0,Bruxelles,Bruxelles-Brussel,réception,,,,50.818262948104,4.406625081043
4678.0,,Chaussée de Wavre ,1854.0,1160.0,Bruxelles,Bruxelles-Brussel,cafétaria,,,,50.811859593173,4.440376825836
4679.0,,Chaussée de Wavre ,1690.0,1160.0,Bruxelles,Bruxelles-Brussel,"salle""Vrijdag"",2° étage",,,,50.816313107878,4.429939177087
4680.0,,Waversesteenweg ,1945.0,1160.0,Brussel,Bruxelles-Brussel,"3° étage,bij verlaten lift",,,,50.812638062431,4.435894603113
4681.0,,Hengstenberg,107.0,3090.0,Overijse,Vlaams-Brabant,"ingang leveranciers,colli s ontva",,,,50.779053033692,4.50009017461
4682.0,,Raketstraat ,60.0,1130.0,Brussel,Bruxelles-Brussel,"1ste verd, receptie",,,,50.878092721514,4.4194841778
4683.0,,Route de Bavay z.i. ,2.0,7080.0,Frameries,Hainaut,local des contremaitres,,,,50.404868782686,3.919539360292
4684.0,,Rue Chapelle Marion ,1.0,5030.0,Gembloux,Namur,réception,,,,50.562829813251,4.691454053247
4685.0,,St-Jozefstraat ,1.0,8820.0,Torhout,West-Vlaanderen,"buitenzijde gebouw,links hoofding",,,,51.068780893026,3.106843271808
4686.0,,Fond des Rivaux,,5500.0,Dinant,Namur,"buvette-club sportif,anc ch d Yvoi",,,,50.284967876466,4.896619812829
4687.0,,Rue le Marais,76.0,4530.0,Villers-le-Bouillet,Liège,entrée principale,,,,50.58588293874,5.284683585765
4688.0,,Rue de Waremme ,5.0,4530.0,Villers-le-Bouillet,Liège,entrée principale,,,,50.567235593017,5.269847198049
4689.0,,Rue des Marronniers ,16.0,4530.0,Villers-le-Bouillet,Liège,entrée principale,,,,50.569238113504,5.263503354631
4690.0,,Rue Résidence Charles Plisnier ,28.0,7000.0,Mons,Hainaut,local cuisine,,,,50.476744231059,3.919993827082
4691.0,,Rue Reine Astrid ,179.0,4480.0,Engis,Liège,hall accueil,,,,50.583685287546,5.392327590563
4692.0,,Rue Batis de Corère,,5330.0,Assesse,Namur,extérieur,,,,50.378892301107,4.984896977327
4693.0,,Rue Wilmet ,5.0,6110.0,Montigny-le-Tilleul,Hainaut,hall accueil,,,,50.377395907785,4.378112592645
4694.0,,Rue de Coulsore ,,6110.0,Montigny-le-Tilleul,Hainaut,cafetaria,,,,50.376462849322,4.349138560153
4695.0,,Rue Bois Frion ,,6110.0,Montigny-le-Tilleul,Hainaut,cafetaria,,,,50.379431420934,4.367157150255
4696.0,,Rue de Saint Hubert ,,6950.0,Nassogne,Luxembourg,cafetaria,,,,50.11507724288,5.311579834912
4697.0,,Grand Rue ,,6953.0,Masbourg,Luxembourg,hall accueil,,,,50.165411083885,5.412394034205
4698.0,,Grand Rue,,6951.0,Bande,Luxembourg,vestiaires,,,,50.165411083885,5.412394034205
4699.0,,Place Communale ,1.0,6950.0,Nassogne,Luxembourg,hall accueil,,,,50.128895794101,5.342112111553
4700.0,,Rue de la Haut ,3.0,6950.0,Nassogne,Luxembourg,hall accueil,,,,50.128674679496,5.343264455601
4701.0,,Rue des Allies,,6953.0,Forrières,Luxembourg,vestiaires,,,,50.134125137643,5.288537365581
4702.0,,Rue des Ochires,,6929.0,Daverdisse,Luxembourg,local cafetaria,,,,50.000033454824,5.017748834864
4703.0,,Rue Colline du Mardasson ,5.0,6600.0,Bastogne,Luxembourg,centre d interprétation,,,,50.00891696823,5.738907723802
4704.0,,Boulevard Roullier ,1.0,6000.0,Charleroi,Hainaut,dans le hall d entrée,,,,50.416475078285,4.447177566796
4705.0,,Avenue de la Porallée,40.0,4920.0,Aywaille,Liège,hall omnisports,,,,50.478663225881,5.695652154133
4706.0,,Atomiumsquare ,1.0,1020.0,Brussel,Bruxelles-Brussel,"inkom Pool via PO,glvl",,,,50.894647663958,4.341251497096
4707.0,,Avenue Konrad Adenauer ,8.0,1200.0,Bruxelles,Bruxelles-Brussel,accueil,,,,50.850494341389,4.449172962666
4708.0,,Rue Warmonceau ,318.0,6000.0,Charleroi,Hainaut,accueil 1er étage,,,,50.429479140057,4.46072163268
4709.0,,Chaussée de Binche ,101.0,7000.0,Mons,Hainaut,accueil,,,,50.452918336006,3.974922953162
4711.0,,Boulevard d Avroy,53.0,4000.0,Liège,Liège,accueil,,,,50.637030401564,5.568669170872
4712.0,,Rue Stroobants,75.0,1140.0,Bruxelles,Bruxelles-Brussel,couloir vestiaire,,,,50.880373898372,4.40027562175
4713.0,,Rue de Doolegt ,6.0,1140.0,Bruxelles,Bruxelles-Brussel,entrée salle de sport,,,,50.877952156997,4.396657740882
4714.0,,Avenue Notre Dame ,40.0,1140.0,Bruxelles,Bruxelles-Brussel,1er étagesalle de sport,,,,50.870857420783,4.39639471676
4715.0,,Windmolenstraat ,39.0,1140.0,Bruxelles,Bruxelles-Brussel,salle de sports,,,,50.873763636161,4.396286590209
4716.0,,Rue du Centenaire ,120.0,7300.0,Boussu,Hainaut,salle de sport,,,,50.42867435603,3.796385958532
4718.0,,Rue Barbet ,86.0,7301.0,Boussu,Hainaut,tennis,,,,50.432599105599,3.83262887056
4719.0,,Rue Verte Voie,20.0,1348.0,Louvain-la-Neuve,Brabant Wallon,"foundation Humblet,1er étage",,,,50.670729424185,4.615064572829
4720.0,,Square Hiernaux ,2.0,6000.0,Charleroi,Hainaut,hall d entrée,,,,50.417862377263,4.451136840219
4721.0,,Quai des Vieux Moulins ,4.0,4970.0,Stavelot,Liège,premier étage,,,,50.393448230062,5.933482789404
4722.0,,Rue des Ecoles ,2.0,4560.0,Clavier,Liège,bâtiment caisse vestiaires,,,,50.413461888867,5.299962202692
4723.0,,Rue de Liège,39.0,6180.0,Courcelles,Hainaut,couloir usine local Nr 5,,,,50.476729646547,4.364594362846
4724.0,,Rue Venelle des Capucins,6.0,5000.0,Namur,Namur,Rhall entrée,,,,50.465170080059,4.866391580955
4725.0,,Rue Josph Saintraint ,3.0,5000.0,Namur,Namur,salle principale,,,,50.463242661424,4.861308040498
4726.0,,Rue Route Merveilleuse ,64.0,5000.0,Namur,Namur,entrée,,,,50.458972081756,4.861756807594
4727.0,,Rue Ront-Point Thonard,1.0,5000.0,Namur,Namur,bureaux,,,,50.458496157293,4.852248125175
4728.0,,Chaussée de Wavre ,41.0,4217.0,Héron,Liège,hall entrée,,,,50.548969372431,5.087687068194
4729.0,,Waterleestweg ,12.0,1980.0,Eppegem,Vlaams-Brabant,inkomhal sporthal,,,,50.969964080011,4.44763086012
4730.0,,Rue des Boulonneries ,1.0,7100.0,La,Hainaut,bureau dans le hall,,,,43.499484,-87.848432
4731.0,,Rue de Moncheret,66.0,6280.0,Acoz,Hainaut,bureau dans le hall,,,,50.363768223886,4.533383397761
4732.0,,Rue Lefebvre-Caters ,2.0,7500.0,Tournai,Hainaut,bureau dans le hall,,,,50.619531208938,3.373231889388
4733.0,,Rue de Zone,23.0,6032.0,Mont-sur-Marchienne,Hainaut,dans bureaux administratifs,,,,50.397248962148,4.400005975924
4734.0,,Rue du Centenaire ,49.0,6061.0,Montignies-sur-Sambre,Hainaut,bureaux,,,,50.387530271144,4.411526315106
4735.0,,Rue des Déportés ,1.0,6031.0,Monceau-sur-Sambre,Hainaut,salle Europa,,,,50.38465745765,4.405577929879
4736.0,,Place Franco Belge,17.0,6200.0,Châtelet,Hainaut,sous-sol,,,,50.400635502488,4.531984154383
4737.0,,Rue Hanoteau,23.0,6060.0,GillyCharleroi),Hainaut,"rez,salle de gym,porte d entrée",,,,50.422826213959,4.483160574214
4739.0,,Atletiekstraat  ,1.0,2620.0,Hemiksem,Antwerpen,glvl-zwemhal,,,,51.135188071586,4.342346696343
4740.0,,Middelheimlaan,1.0,2020.0,Antwerpen,Antwerpen,Gebouw A - receptie,,,,51.184171997562,4.419299524473
4741.0,,Rue de Mons,30.0,7080.0,Frameries,Hainaut,"stand de tir,rez de ch",,,,50.41554493849,3.90175153683
4742.0,,Koolmijnlaan,189.0,3582.0,Beringen,Limburg,"aan inkombalie,glvlnst lift",,,,51.068819156414,5.221607333618
4743.0,,Rue de Lusambo,77.0,1190.0,Bruxelles,Bruxelles-Brussel,"usine de production,étage O",,,,50.799767105281,4.311173057329
4745.0,,Rue des Champs ,35.0,4801.0,Stembert,Liège,Hvl Dépot vestiaire-réfectoire,,,,50.593638797567,5.894639457527
4746.0,,Rue du Bassin,119.0,4030.0,Liège,Liège,atelier courte durée,,,,50.633564191234,5.616906436913
4747.0,,Rue du Bassin,119.0,4030.0,Liège,Liège,hall d accueil,,,,50.633564191234,5.616906436913
4748.0,,Chaussée de Tongres,175.0,4252.0,Geer,Liège,salle de garde,,,,50.78282,5.4657
4749.0,,Rue de Ligney ,30.0,4252.0,Geer,Liège,salle de garde des chauffeurs,,,,50.652720453082,5.191091895652
4750.0,,Rue Gustave Baivy ,152.0,4101.0,Jemeppe-sur-Meuse,Liège, local réfectoire,,,,50.611689590713,5.495828984375
4751.0,,Rue Grand Route ,86.0,4360.0,Oreye,Liège, salle de garde,,,,50.728434007954,5.351032635826
4752.0,,Place Saint-Lambert,,4000.0,Liège,Liège,,,,,50.64463567677,5.573312045084
4753.0,,Allée des Noisetiers ,5.0,4031.0,Angleur,Liège,"BEA,bâtiment n° 5,rez,accue",,,,50.599780888576,5.570281346128
4754.0,,Allée des Noisetiers ,12.0,4031.0,Angleur,Liège,"bât. n°12,étage O,coul R35",,,,50.599965919089,5.575820945937
4755.0,,Hoogstraat,,8460.0,Oudenburg,West-Vlaanderen,op straataan parking,,,,51.182914035917,3.00514067515
4756.0,,Dorpsstraat ,,8460.0,Ettelgem,West-Vlaanderen,geplaatst in kast tegen muur,,,,51.178783062082,3.032434979331
4757.0,,Rue Marache ,22.0,5031.0,Grand-Leez,Namur,glvl aan lift,,,,50.579782547699,4.765104160069
4758.0,,Paardekerkhof ,,9990.0,Donk,Oost-Vlaanderen,buitenzijde inkom,,,,51.211163912626,3.385655572765
4759.0,,Kroonstraat ,44.0,1750.0,Lennik,Vlaams-Brabant,"glvl,aan keuken-vr refter 801NB",,,,50.805803542401,4.150357192452
4763.0,,Rue de Bruxelles ,486.0,1480.0,Tubize,Brabant Wallon,bâtiment Indoor T1,,,,50.706114215174,4.20875265459
4764.0,,Rue de Bruxelles ,486.0,1480.0,Tubize,Brabant Wallon,bâtiment Jeunes-Entrée,,,,50.706114215174,4.20875265459
4766.0,,Hanzestedenplaats ,1.0,2000.0,Antwerpen,Antwerpen,glvl hoofdinkom achter balie,,,,51.228930689967,4.404709145615
4767.0,,Avenue Jules Bordet ,,1140.0,Bruxelles,Bruxelles-Brussel,accueil - 1er étage,,,,50.877766979638,4.410366636056
4768.0,,Rue Terarken ,2.0,1000.0,Bruxelles,Bruxelles-Brussel,securitas étage - 1,,,,50.843763924597,4.359243774954
4769.0,,Sint-Lenaartseweg ,26.0,2320.0,Hoogstraten,Antwerpen,"midden vd hal,rechtse kant",,,,51.389645511,4.747964257723
4770.0,,Rue Ravenstein,28.0,1000.0,Brussel,Bruxelles-Brussel,infodesk niveau 0,,,,50.844717198445,4.35930906998
4771.0,,Place Henri Vanhuffelplein,6.0,1080.0,Bruxelles,Bruxelles-Brussel,gr hall maison commu,,,,50.860834047599,4.331224078467
4772.0,,Isabellalaan,1.0,8380.0,ZeebruggeBrugge,West-Vlaanderen,"EHBO-lokaal, glvl",,,,51.335405014974,3.219368187865
4773.0,,De Koninckstraat,38.0,1080.0,Brussel,Bruxelles-Brussel,3de verd,,,,50.855680980812,4.314141138564
4774.0,,Rue de Chênée ,27.0,4031.0,Angleur,Liège,magasin CLI,,,,50.61129121014,5.602834396139
4775.0,,Rue A. Camus ,7.0,6031.0,Monceau-sur-Sambre,Hainaut,dans la salle située sous la maison communale,,,,50.411655064864,4.382335666745
4776.0,,Rue du Charroi ,20.0,1190.0,Bruxelles,Bruxelles-Brussel,Appareil Mobile,Y,,,50.822567950973,4.319399921971
4777.0,,Rue du Charroi ,20.0,1190.0,Bruxelles,Bruxelles-Brussel,Appareil Mobile,Y,,,50.822567950973,4.319399921971
4778.0,,Rue du Charroi ,20.0,1190.0,Bruxelles,Bruxelles-Brussel,Appareil Mobile,Y,,,50.822567950973,4.319399921971
4779.0,,Rue du Charroi ,20.0,1190.0,Bruxelles,Bruxelles-Brussel,Appareil Mobile,Y,,,50.822567950973,4.319399921971
4780.0,,Rue du Charroi ,20.0,1190.0,Bruxelles,Bruxelles-Brussel,Appareil Mobile,Y,,,50.822567950973,4.319399921971
4781.0,,Rue du Charroi ,20.0,1190.0,Bruxelles,Bruxelles-Brussel,Appareil Mobile,Y,,,50.822567950973,4.319399921971
4782.0,,Rue du Charroi ,20.0,1190.0,Bruxelles,Bruxelles-Brussel,Appareil Mobile,Y,,,50.822567950973,4.319399921971
4783.0,,Rue du Charroi ,20.0,1190.0,Bruxelles,Bruxelles-Brussel,Appareil Mobile,Y,,,50.822567950973,4.319399921971
4784.0,,Rue du Charroi ,20.0,1190.0,Bruxelles,Bruxelles-Brussel,Appareil Mobile,Y,,,50.822567950973,4.319399921971
4785.0,,Rue du Charroi ,20.0,1190.0,Bruxelles,Bruxelles-Brussel,Appareil Mobile,Y,,,50.822567950973,4.319399921971
4786.0,,Rue du Charroi ,20.0,1190.0,Bruxelles,Bruxelles-Brussel,Appareil Mobile,Y,,,50.822567950973,4.319399921971
4787.0,,Rue du Charroi ,20.0,1190.0,Bruxelles,Bruxelles-Brussel,Appareil Mobile,Y,,,50.822567950973,4.319399921971
4788.0,,Rue du Charroi ,20.0,1190.0,Bruxelles,Bruxelles-Brussel,Appareil Mobile,Y,,,50.822567950973,4.319399921971
4789.0,,Rue du Charroi ,20.0,1190.0,Bruxelles,Bruxelles-Brussel,Appareil Mobile,Y,,,50.822567950973,4.319399921971
4790.0,,Rue du Charroi ,20.0,1190.0,Bruxelles,Bruxelles-Brussel,Appareil Mobile,Y,,,50.822567950973,4.319399921971
4791.0,,Rue du Charroi ,20.0,1190.0,Bruxelles,Bruxelles-Brussel,Appareil Mobile,Y,,,50.822567950973,4.319399921971
4792.0,,Rue du Charroi ,20.0,1190.0,Bruxelles,Bruxelles-Brussel,Appareil Mobile,Y,,,50.822567950973,4.319399921971
4793.0,,Rue du Charroi ,20.0,1190.0,Bruxelles,Bruxelles-Brussel,Appareil Mobile,Y,,,50.822567950973,4.319399921971
4794.0,,Rue du Charroi ,20.0,1190.0,Bruxelles,Bruxelles-Brussel,Appareil Mobile,Y,,,50.822567950973,4.319399921971
4795.0,,Rue du Charroi ,20.0,1190.0,Bruxelles,Bruxelles-Brussel,Appareil Mobile,Y,,,50.822567950973,4.319399921971
4796.0,,Rue du Charroi ,20.0,1190.0,Bruxelles,Bruxelles-Brussel,Appareil Mobile,Y,,,50.822567950973,4.319399921971
4797.0,,Rue du Charroi ,20.0,1190.0,Bruxelles,Bruxelles-Brussel,Appareil Mobile,Y,,,50.822567950973,4.319399921971
4798.0,,Rue du Charroi ,20.0,1190.0,Bruxelles,Bruxelles-Brussel,Appareil Mobile,Y,,,50.822567950973,4.319399921971
4799.0,,Rue du Charroi ,20.0,1190.0,Bruxelles,Bruxelles-Brussel,Appareil Mobile,Y,,,50.822567950973,4.319399921971
4800.0,,Rue du Charroi ,20.0,1190.0,Bruxelles,Bruxelles-Brussel,Appareil Mobile,Y,,,50.822567950973,4.319399921971
4801.0,,Rue du Charroi ,20.0,1190.0,Bruxelles,Bruxelles-Brussel,Appareil Mobile,Y,,,50.822567950973,4.319399921971
4802.0,,Rue du Charroi ,20.0,1190.0,Bruxelles,Bruxelles-Brussel,Appareil Mobile,Y,,,50.822567950973,4.319399921971
4803.0,,Rue du Charroi ,20.0,1190.0,Bruxelles,Bruxelles-Brussel,Appareil Mobile,Y,,,50.822567950973,4.319399921971
4804.0,,Rue du Charroi ,20.0,1190.0,Bruxelles,Bruxelles-Brussel,Appareil Mobile,Y,,,50.822567950973,4.319399921971
4805.0,,Rue du Charroi ,20.0,1190.0,Bruxelles,Bruxelles-Brussel,Appareil Mobile,Y,,,50.822567950973,4.319399921971
4806.0,,Rue du Charroi ,20.0,1190.0,Bruxelles,Bruxelles-Brussel,Appareil Mobile,Y,,,50.822567950973,4.319399921971
4807.0,,Rue du Charroi ,20.0,1190.0,Bruxelles,Bruxelles-Brussel,Appareil Mobile,Y,,,50.822567950973,4.319399921971
4808.0,,Rue du Charroi ,20.0,1190.0,Bruxelles,Bruxelles-Brussel,Appareil Mobile,Y,,,50.822567950973,4.319399921971
4809.0,,Rue du Charroi ,20.0,1190.0,Bruxelles,Bruxelles-Brussel,Appareil Mobile,Y,,,50.822567950973,4.319399921971
4810.0,,Rue du Charroi ,20.0,1190.0,Bruxelles,Bruxelles-Brussel,Appareil Mobile,Y,,,50.822567950973,4.319399921971
4811.0,,Rue du Charroi ,20.0,1190.0,Bruxelles,Bruxelles-Brussel,Appareil Mobile,Y,,,50.822567950973,4.319399921971
4812.0,,Rue du Charroi ,20.0,1190.0,Bruxelles,Bruxelles-Brussel,Appareil Mobile,Y,,,50.822567950973,4.319399921971
4813.0,,Rue du Charroi ,20.0,1190.0,Bruxelles,Bruxelles-Brussel,Appareil Mobile,Y,,,50.822567950973,4.319399921971
4814.0,,Rue du Charroi ,20.0,1190.0,Bruxelles,Bruxelles-Brussel,Appareil Mobile,Y,,,50.822567950973,4.319399921971
4815.0,,Rue du Charroi ,20.0,1190.0,Bruxelles,Bruxelles-Brussel,Appareil Mobile,Y,,,50.822567950973,4.319399921971
4816.0,,Rue du Charroi ,20.0,1190.0,Bruxelles,Bruxelles-Brussel,Appareil Mobile,Y,,,50.822567950973,4.319399921971
4817.0,,Rue du Charroi ,20.0,1190.0,Bruxelles,Bruxelles-Brussel,Appareil Mobile,Y,,,50.822567950973,4.319399921971
4818.0,,Rue du Charroi ,20.0,1190.0,Bruxelles,Bruxelles-Brussel,Appareil Mobile,Y,,,50.822567950973,4.319399921971
4819.0,,Rue du Charroi ,20.0,1190.0,Bruxelles,Bruxelles-Brussel,Appareil Mobile,Y,,,50.822567950973,4.319399921971
4820.0,,Rijmenamsesteenweg ,143.0,3150.0,Haacht,Vlaams-Brabant,aan de buitenmuur,,,,50.982411792959,4.614579092997
4821.0,,Technologielaan ,,2800.0,Mechelen,Antwerpen,in de hal,,,,51.002262772755,4.470712023354
4822.0,,Rue de Boignée ,36.0,5140.0,Sombreffe,Namur,à l arrière de la maison,,,,50.513584455714,4.622374095312
4823.0,,Rue Croix du Sud ,4.0,1348.0,Louvain-la-Neuve,Brabant Wallon,hall d entrée,Y,,,50.666678073195,4.619361387854
4824.0,,Bergense Steenweg ,61.0,2270.0,Herenthout,Antwerpen,aan inkom in een kast,,,,51.148504149704,4.767410776004
4825.0,,John Kennedylaan ,25.0,9000.0,Gent,Oost-Vlaanderen,bewakingspost BCG bij ingang,,,,51.100209719082,3.753971040134
4826.0,,Klaverveld,4.0,9255.0,Buggenhout,Oost-Vlaanderen,inkomhal links zwembad zijmuur,,,,51.014867988888,4.195662552582
4827.0,,Wiedauwkaai,52.0,9000.0,Gent,Oost-Vlaanderen,"glvl nst lift,camerabeveiliging",,,,51.074490729288,3.72326662006
4828.0,,Rue du Sourd d Ave ,1.0,5580.0,Rochefort,Namur,carriere réfectoire,,,,50.117433897919,5.113075945315
4829.0,,Quai du Halage,,4400.0,Flémalle,Liège,infirmerie,,,,50.587860197109,5.429458198382
4830.0,,Quai du Halage ,,4400.0,Flémalle,Liège,poste de commandes,,,,50.587860197109,5.429458198382
4831.0,,Route du Lac,1.0,4980.0,Trois-Ponts,Liège,hall d entrée,,,,50.377365902166,5.872357741206
4832.0,,Route du Lac,1.0,4980.0,Trois-Ponts,Liège,poste de commandes en caverne,,,,50.377365902166,5.872357741206
4833.0,,Rue Chauw à Roc,6.0,6044.0,Roux,Hainaut,hall d entrée,,,,50.430486371018,4.397640494124
4834.0,,Rue Chauw à Roc,6.0,6044.0,Roux,Hainaut,poste de commandes,,,,50.430486371018,4.397640494124
4835.0,,Rue d Hautrage,87.0,7331.0,Saint-Ghislain,Hainaut,sas entrée batiment administrat,,,,50.472459444065,3.826179627248
4836.0,,Rue d Hautrage,87.0,7331.0,Saint-Ghislain,Hainaut,couloir entrée poste de commande,,,,50.472459444065,3.826179627248
4837.0,,Coupure Rechts,228.0,9000.0,Gent,Oost-Vlaanderen,glvl tegenover het onthaal,,,,51.049114725226,3.712826186173
4838.0,,Avenue Josse Goffin ,180.0,1080.0,Bruxelles,Bruxelles-Brussel,"rez,à côté de l accueil",,,,50.867009582402,4.306336783015
4839.0,,Rue de l Avenir,2.0,5360.0,Natoye,Namur,hall d entrée du hall de sports,,,,50.339410393657,5.055512797579
4840.0,,Rue d Hubinne ,1.0,5360.0,Hamois,Namur,dans le petit local de management,,,,50.341530931341,5.160120457951
4841.0,,Zeelaan ,21.0,8660.0,De,West-Vlaanderen,thv ingang gemeentehuis,,,,43.499484,-87.848432
4842.0,,Koningsplein,1.0,8660.0,De,West-Vlaanderen,buitenmuur dienst Senioren,,,,51.0957459,2.5883482
4843.0,,Dorpsstraat-Kerkweg ,,8660.0,Adinkerke,West-Vlaanderen,aan buitenmuur op plein,,,,51.074572483976,2.600113579034
4844.0,,Sint-Elisabethlaan ,4.0,8660.0,De,West-Vlaanderen,thv ingang KTA-sportzaal,,,,51.2183208,2.9055832
4845.0,,P. Bortierplein,11.0,8660.0,De,West-Vlaanderen,aan buitenmuur opslagloods,,,,51.099912580615,2.582286169092
4846.0,,Avenue de l Europe,1.0,7900.0,Leuze-en-Hainaut,Hainaut,local de surveillance,,,,50.602100077366,3.642127869484
4847.0,,Avenue de l Europe ,1.0,7900.0,Leuze-en-Hainaut,Hainaut,panoptique,,,,50.602100077366,3.642127869484
4848.0,,Brielen ,9.0,2830.0,Willebroek,Antwerpen,"glvl burelen,inkomhal voor trap",,,,51.038346831239,4.365233063868
4849.0,,Rue de la Touche ,20.0,5590.0,Ciney,Namur,buvette footbal de RJS Leignon,,,,50.254856626494,5.135541800572
4850.0,,Rue Darwin ,15.0,1190.0,Bruxelles,Bruxelles-Brussel,piscine,,,,50.818204023325,4.351635772899
4851.0,,Naamsestraat ,22.0,3000.0,Leuven,Vlaams-Brabant,"glvl,aan trap lokaal tgo univhall",,,,50.877946289665,4.700294195069
4852.0,,Rue Edouard Stuckens,45.0,1140.0,Bruxelles,Bruxelles-Brussel,"rez,après la buvette",,,,50.875897878258,4.39521915484
4853.0,,Rue Cheravoie,2.0,6840.0,Neufchâteau,Luxembourg,hall d entrée du centre sportif,,,,50.725643546658,5.738773860847
4854.0,,Rue L. Defuisseaux ,24.0,7080.0,Frameries,Hainaut,,,,,50.406487789194,3.894513931076
4855.0,,Rue d Elouges,3.0,7370.0,Dour,Hainaut,sas entre boucherie et accueil,,,,50.395291242933,3.77481783916
4856.0,,Rue de la Perche,88.0,7340.0,Colfontaine,Hainaut,locaux secours,,,,50.410771989455,3.857667419993
4857.0,,Rue Eva Dupont ,1.0,7011.0,Ghlin,Hainaut,sortie - caisses,,,,50.475165667234,3.909363310742
4858.0,,Place des Combattants,23.0,7330.0,Saint-Ghislain,Hainaut,salle de repos,,,,50.448244000062,3.819129440849
4859.0,,Rue d Elouges,104.0,7370.0,Dour,Hainaut,à côté des caisses,,,,50.395828439107,3.768020199504
4860.0,,Rue du Soleil,2.0,9600.0,Renaix,Oost-Vlaanderen,derrière la caisse,,,,50.748282564221,3.595528008228
4861.0,,Grote Baan ,222.0,1620.0,Drogenbos,Vlaams-Brabant,voor het gemeentehuis,,,,50.78672402575,4.317093949913
4862.0,,Grote Baan ,222.0,1620.0,Drogenbos,Vlaams-Brabant,voor het gemeentehuis,,,,50.78672402575,4.317093949913
4863.0,,Chaussée de Wavre,67.0,1360.0,Perwez,Brabant Wallon,in de hal,,,,50.628917791519,4.801113545502
4864.0,,Bergensesteenweg,32.0,1651.0,Lot,Vlaams-Brabant,in de hal,,,,50.778172095669,4.272357721009
4865.0,,Noorderlaan ,147.0,2030.0,Antwerpen,Antwerpen,"Atlantic House-6°verd,recept",,,,51.263986407436,4.399901285954
4866.0,,Bedrijvenzone Machelen-Cargo,714.0,1830.0,MachelenBt),Vlaams-Brabant,"receptie,hoofding",,,,50.904365922745,4.452957811045
4867.0,,Rue de l Alliance,19.0,7300.0,Boussu,Hainaut,salle de gymnastique,,,,50.412631325825,3.796436245307
4868.0,,Rue de Mons ,202.0,7301.0,Hornu,Hainaut,salle de gymnastique,,,,50.438080462895,3.834361758899
4869.0,,Rue Quartier Robertmont,1.0,7300.0,Boussu,Hainaut,salle de gymnastique,,,,50.426180553238,3.799804593226
4870.0,,Rue de Binche ,80.0,7301.0,Hornu,Hainaut,salle de gymnastique,,,,50.428458894802,3.830666040923
4871.0,,Rue de Bavay ,143.0,7300.0,Boussu,Hainaut,salle de gymnastique,,,,50.403522726939,3.807051691586
4872.0,,Atletiekstraat ,1.0,2620.0,Hemiksem,Antwerpen,rechterzijde bij binnenkomen,,,,51.135188071586,4.342346696343
4873.0,,Chaussée Tirlemont ,105.0,5030.0,Gembloux,Namur,rez à gauche porte d entrée,,,,50.580337418666,4.707785124587
4874.0,,Rue de la Croix Limont ,36.0,5590.0,Ciney,Namur,direction financisie-1°,,,,50.315087284108,5.114394326282
4875.0,,Bedrijfsstraat ,1220.0,3660.0,Opglabbeek,Limburg,"glvl, aan receptie",,,,51.038558725751,5.532174280627
4876.0,,Dendermondestraat ,25.0,1785.0,Merchtem,Vlaams-Brabant,glvl,,,,50.961209182144,4.228455156194
4877.0,,J. Stallaertstraat,10.0,1785.0,Merchtem,Vlaams-Brabant,"glvl, inkom kleedkamers",,,,50.955469380578,4.243491368482
4879.0,,Rue Laid Burniat,3.0,1348.0,Louvain-la-Neuve,Brabant Wallon,réception,,,,50.665632598412,4.635268228424
4880.0,,Carrefour de la Spetz,2.0,6700.0,Arlon,Luxembourg,bord du bassin,,,,49.675259357167,5.826493159787
4881.0,,Carrefour de la Spetz,2.0,6700.0,Arlon,Luxembourg,"rez,passage devant vestiai",,,,49.675259357167,5.826493159787
4882.0,,Rue de Gedinne,46.0,6920.0,Wellin,Luxembourg,cafetaria,,,,50.080398772881,5.103709327571
4883.0,,Chaussée de Tirlemont6 ,6.0,1370.0,Jodoigne,Brabant Wallon,"salle infirmerie,rez de c",,,,50.725346240553,4.872471310605
4884.0,,Rue des Alouettes ,99.0,4041.0,Milmort,Liège,hall d accueil,,,,50.694495607615,5.587421935022
4886.0,,Rue du Bay Bonnet ,13.0,4870.0,Trooz,Liège,salle en dessous de l accueil,,,,50.592567083382,5.694610282119
4887.0,,Rue de Bièvre,1.0,6850.0,Paliseul,Luxembourg,hall accueil,,,,49.895331086542,5.078973744567
4889.0,,Rue de Mons ,163.0,7301.0,Hornu,Hainaut,au poste de garde - accueil,,,,50.437319949473,3.838772011846
4890.0,,Rue Coutoir ,1.0,7800.0,Ath,Hainaut,salle de gymnastique - clubhouse,,,,50.639365912,3.77288165
4891.0,,Dreef ,38.0,2328.0,Meerle,Antwerpen,buitenkast,,,,51.496268138986,4.775987642247
4892.0,,Hoogeind,74.0,2321.0,Meer,Antwerpen,Hbuitenkast,,,,51.466244664726,4.735269949183
4893.0,,Watertorenstraat ,35.0,2250.0,Olen,Antwerpen,"afd OFM,glvl, gang nr refter",,,,51.177771492478,4.880763611235
4894.0,,Rue de Neck ,,1080.0,Bruxelles,Bruxelles-Brussel,dans le hall d entrée,,,,50.864749747047,4.330328044406
4895.0,,Uilenbaan,120.0,2160.0,Wommelgem,Antwerpen,centrale gang magazijn,,,,51.212948454177,4.51750072861
4896.0,,Rue d Hatrival,173.0,6890.0,Libin,Luxembourg,"hall d entrée,rez de ch",,,,49.983397270545,5.265013354488
4897.0,,Rue Thier des Corbeaux ,12.0,6900.0,Marche-en-Famenne,Luxembourg,dojo de l espace fitness,,,,50.230980459708,5.338547707227
4898.0,,De Roosen,43.0,3910.0,Neerpelt,Limburg,NTC tennishal,,,,51.214329666092,5.44762132943
4900.0,,Rue de l Eglise St Martin ,10.0,5600.0,Philippeville,Namur,couloir du réfertoir,,,,50.14637247178,4.585377160561
4901.0,,Rue du Coeur Dolent ,,7130.0,Binche,Hainaut,buvette,,,,50.418848571437,4.166254364534
4902.0,,Slingerweg ,31.0,3600.0,Genk,Limburg,"tegen achtergevel,glvl",,,,50.921030319725,5.493386269311
4903.0,,Parc Industriel Feluy Nord Zone C 1,,7181.0,Feluy,Hainaut,récep-loge gar,,,,50.564888465854,4.251933328031
4904.0,,Heemsdaalstraat e),1.0,2620.0,Hemiksem,Antwerpen,ingang receptie,,,,51.147390697686,4.33517731928
4906.0,,Koning Leopoldlaan ,8.0,2830.0,Willebroek,Antwerpen,"werkplaats,lokaal rechts glvl",,,,51.03272676516,4.326908320341
4907.0,,Koning Leopoldlaan ,8.0,2830.0,Willebroek,Antwerpen,"ingang hoofdgeb,links recept",,,,51.03272676516,4.326908320341
4908.0,,Avenue d Auderghem ,20.0,1040.0,Bruxelles,Bruxelles-Brussel,1° étage,,,,50.841379776057,4.384702716202
4909.0,,Bist,41.0,2180.0,EkerenAntwerpen),Antwerpen,bar,,,,51.28454771884,4.439024489577
4910.0,,Rue du Quatrième Génie,2.0,5000.0,Namur,Namur,"bât A,rez,bur de directio",,,,50.46612658094,4.87436059158
4911.0,,Nijverheidslaan ,,9880.0,Aalter,Oost-Vlaanderen,hall accueil,,,,51.102530245301,3.444690915055
4912.0,,Atealaan ,27.0,2270.0,Herenthout,Antwerpen,hall accueil,,,,51.156665986011,4.798116453364
4913.0,,Avenue du Parc Industriel,2.0,4041.0,Milmort,Liège,hall accueil,,,,50.697800712295,5.589664344616
4914.0,,Quai des Vennes ,8.0,1000.0,Bruxelles,Bruxelles-Brussel,local infirmerie,,,,50.89806471,4.406264339
4915.0,,Rue des Tanneurs ,41.0,1000.0,Bruxelles,Bruxelles-Brussel,hall accueil,,,,50.840253541637,4.346434382883
4916.0,,Rue de Dilbeek ,1.0,1080.0,Bruxelles,Bruxelles-Brussel,local des professeurs,,,,50.848681754828,4.314701922384
4917.0,,Avenue Marius Renard ,1.0,1070.0,Bruxelles,Bruxelles-Brussel,hall accueil local techniqu,,,,50.829085326208,4.292447047444
4918.0,,Rue Emile Gryson,1.0,1070.0,Bruxelles,Bruxelles-Brussel,hall accueil auditorium,,,,50.815451196775,4.294899592313
4919.0,,Rue Emile Gryson ,1.0,1070.0,Bruxelles,Bruxelles-Brussel,salle de restaurant,,,,50.815451196775,4.294899592313
4920.0,,Rue Emile Gryson ,1.0,1070.0,Bruxelles,Bruxelles-Brussel,hall accueil,,,,50.815451196775,4.294899592313
4921.0,,Rue Emile Gryson ,1.0,1070.0,Bruxelles,Bruxelles-Brussel,local porterie,,,,50.815451196775,4.294899592313
4922.0,,Chemin des Roses,46.0,7866.0,Ollignies,Hainaut,local accueil,,,,50.674880640287,3.853773065411
4923.0,,Rue de la Libération,65.0,7080.0,La,Hainaut,salle de sport,,,,50.1648972,5.2133039
4924.0,,Rue Elva ,13.0,4160.0,Anthisnes,Liège,buvette de football,,,,50.481875338816,5.525920626487
4925.0,,Rue Basse Voie ,4.0,4163.0,Tavier,Liège,local sportif au rez de ch,,,,50.512565368471,5.489655390546
4926.0,,Rue du Centre,25.0,4160.0,Anthisnes,Liège,"dans le bar, rez de ch",,,,50.481611492225,5.519703179717
4927.0,,Avenue de l Abbaye ,19.0,4160.0,Anthisnes,Liège,"hall d entrée,rez de ch",,,,50.479459239837,5.522097872349
4928.0,,Chaussée du Moulin,20.0,4162.0,Hody,Liège,dans le bar au rez de ch,,,,50.485057475868,5.501892943991
4929.0,,Rue du Val Pierrys ,8.0,4160.0,Anthisnes,Liège,"dans le local du bar, rez",,,,50.472125970047,5.503893320218
4930.0,,Rue du Village ,93.0,4161.0,Villers-aux-Tours,Liège,dans le bar au rez de ch,,,,50.499160817138,5.518595594439
4931.0,,Voie de Hèsse ,14.0,4163.0,Tavier,Liège,dans le bar au rez de ch,,,,50.499162874681,5.473541707991
4932.0,,Galerie du Roi,5.0,1000.0,Bruxelles,Bruxelles-Brussel,entrée commun,,,,50.847931825951,4.355288522483
4933.0,,Kunstlaan ,14.0,1210.0,Brussel,Bruxelles-Brussel,aan receptie op glvl,,,,50.847685272269,4.369945118376
4934.0,,Gravenstraat ,3.0,2480.0,Dessel,Antwerpen,aan hall ingang glvl van bezoekerscentrum Tabloo,,"maandag, dinsdag, donderdag, vrijdag",van 8 tot 16u,51.231402010299,5.087975573301
4935.0,,Avenue de l Espérance ,1.0,6220.0,Fleurus,Hainaut,"nucleaire site,gebouw B14",,,,50.451565287286,4.535736397158
4936.0,,Rue des Cocquerées ,,1340.0,Ottignies,Brabant Wallon,rez de ch,,,,50.660873128868,4.558768358225
4937.0,,Rue des Carrières,202.0,6010.0,Couillet,Hainaut,"dispensaire RDC,2° porte",,,,50.379444207242,4.47420031972
4938.0,,Rue Place Ferrer ,2.0,6043.0,Ransart,Hainaut,"cage d escalier,passer l entrée",,,,50.423975946399,4.485487455573
4939.0,,Rue Cantersteen,47.0,1000.0,Bruxelles,Bruxelles-Brussel,entrée personnel,,,,50.845595999083,4.358227050099
4940.0,,Rue Cantersteen ,47.0,1000.0,Bruxelles,Bruxelles-Brussel,entrée principale,,,,50.845595999083,4.358227050099
4941.0,,Rue de l Industrie,,1040.0,Bruxelles,Bruxelles-Brussel,accueil,,,,50.842860637876,4.37014707688
4942.0,,Rue Willems,,1210.0,Bruxelles,Bruxelles-Brussel,réception,,,,50.848983870891,4.377536466718
4943.0,,Rue de Nivelles ,52.0,1300.0,Wavre,Brabant Wallon,salle de sport,,,,50.714240386483,4.608522329763
4944.0,,Rue de Chênée ,53.0,4031.0,Angleur,Liège,cottage rez de ch,,,,50.609139451109,5.608225718889
4945.0,,Rue de Chênée,53.0,4031.0,Angleur,Liège,"couloir, rez de ch",,,,50.609139451109,5.608225718889
4946.0,,Rue Forges-les-Eaux ,,4651.0,Battice,Liège,"salle de sport,rez de ch",,,,50.649878678706,5.820124326468
4947.0,,Rue du Collège ,26.0,4650.0,Herve,Liège,"salle de sport, rez de ch",,,,50.639138534031,5.795409542413
4948.0,,Avenue des Platane,73.0,4650.0,Grand-Rechain,Liège,"salle de sport,rez de ch",,,,50.607552337743,5.813698938961
4949.0,,Rue du Stade,6.0,4650.0,Herve,Liège,"local maître-nageur,rez de ch",,,,50.639450676106,5.790976856738
4950.0,,Blarenberglaan ,3.0,2800.0,Mechelen,Antwerpen,"2de verd,rechts v receptie",,,,51.052002083069,4.454030191737
4951.0,,Rue de l Eglise,12.0,7950.0,Huissignies,Hainaut,"du coté gauche,près des gradins",,,,50.564468726779,3.754036754255
4952.0,,Rue de l Eglise ,12.0,7950.0,Huissignies,Hainaut,salle à l étage du hall sportif,,,,50.564468726779,3.754036754255
4953.0,,Hulsterweg ,184.0,3980.0,Tessenderlo,Limburg,"buitenkant gebouw, glvl",,,,51.069934159084,5.129834294845
4954.0,,Engsbergseweg ,107.0,3980.0,Tessenderlo,Limburg,"aan buitenzijde gebouw, glvl",,,,51.02908914491,5.04378450338
4955.0,,Sint-Jozefsplein,1.0,3980.0,Tessenderlo,Limburg,"aan gebouw, glvl, buitenkant",,,,51.066611614575,5.037017709127
4956.0,,Molenhuizen z/n ,,3980.0,Tessenderlo,Limburg,"aan buitenkant gebouw, glvl",,,,51.052817792769,5.076813267522
4957.0,,Rue Pierre Thomas,10.0,6600.0,Bastogne,Luxembourg,niv 0 dans la sal d attente,,,,50.007370435636,5.721484676805
4958.0,,Place Paul Roger ,1.0,6760.0,Virton,Luxembourg,"niveau 0,mur à droite de l entr",,,,49.566329233146,5.533325451209
4959.0,,Rue Grand-Rue,61.0,6791.0,Athus,Luxembourg,"niveau 0,dans la salle d attente",,,,49.562770528515,5.834890737121
4960.0,,Avenue du Monumet ,8.0,6900.0,Marche-en-Famenne,Luxembourg,"niveau 0, hall d entrée",,,,50.224207504757,5.342571691304
4961.0,,Noordlaan ,150.0,9200.0,Dendermonde,Oost-Vlaanderen,glvl - onthaal,,,,51.03393954273,4.09181580138
4962.0,,Rozendreef ,66.0,9300.0,Aalst,Oost-Vlaanderen,glvl op voorgevel,,,,50.948658525718,4.058407177856
4963.0,,Kortestraat ,14.0,9320.0,Erembodegem,Oost-Vlaanderen,glvl op voorgevel,,,,50.917877760212,4.06389157477
4964.0,,Zandberg,55.0,9300.0,Aalst,Oost-Vlaanderen,glvl op voorgevel,,,,50.934599908504,4.080712461882
4965.0,,Beugemstraat ,24.0,9310.0,Moorsel,Oost-Vlaanderen,glvl op voorgevel,,,,50.952918767442,4.093453206165
4966.0,,Albrechtlaan,115.0,9300.0,Aalst,Oost-Vlaanderen,glvl op voorgevel zaal,,,,50.939787468379,4.054375683914
4967.0,,Walemstraat,38.0,2570.0,Duffel,Antwerpen,"productiehal, kantoorruimte",,,,51.084136246277,4.474607596395
4968.0,,Preenakker ,,1785.0,Brussegem,Vlaams-Brabant,tussen magazijn en bureau s glvl,,,,50.950924125817,4.248123566775
4969.0,,Place du Thieulain ,14.0,7901.0,Thieulain,Hainaut,local société de jeux de bal,,,,50.619314788198,3.604539308513
4970.0,,Grootbijgaardenstraat ,128.0,1620.0,Drogenbos,Vlaams-Brabant,"rez,local 131,sas produc",,,,50.796768144144,4.291445661472
4971.0,,Grootbijgaardenstraat ,128.0,1620.0,Drogenbos,Vlaams-Brabant,"rez,réception,local 103",,,,50.796768144144,4.291445661472
4972.0,,Langestraat ,12.0,9300.0,Aalst,Oost-Vlaanderen,glvl op voorgevel,,,,50.942029040745,4.061466103448
4973.0,,Frans Blanckaertdreef ,,9300.0,Aalst,Oost-Vlaanderen,glvl op voorgevel,,,,50.928467833882,4.043034865734
4974.0,,Avenue des Chênes ,125.0,1180.0,Bruxelles,Bruxelles-Brussel,en intérieur entre 2 terrain,,,,50.794803501222,4.378668248835
4975.0,,Rue de Magnée ,110.0,4610.0,Beyne-Heusay,Liège,stock 110,,,,50.614535098265,5.66989994524
4976.0,,Rue du Vert Bois ,13.0,4000.0,Liège,Liège,1er étage,,,,50.682596828541,5.687277651692
4977.0,,Avenue Mounier,100.0,1200.0,Bruxelles,Bruxelles-Brussel,accueil,,,,50.849522417807,4.460485011554
4978.0,,Rue de Mettet,127.0,5620.0,Florennes,Namur,bâtiment B1-rez de ch,,,,50.271340878238,4.624671066443
4979.0,,Rue Février ,2.0,5620.0,Florennes,Namur,"rez de ch,couloir pointeuse",,,,50.252935891157,4.609483650238
4980.0,,Rue Saint Donat ,21.0,5640.0,Mettet,Namur,"rez de ch,zone de production",,,,50.302764377698,4.646670298952
4982.0,,Rue Paquay,53.0,4100.0,Seraing,Liège,"preou couvert,servant de gymnage",,,,50.601159460191,5.52201608453
4983.0,,Tweekerkenstraat ,107.0,1210.0,Brussel,Bruxelles-Brussel,lokaal scheidsrechter,,,,50.848908904404,4.374286525126
4984.0,,Rue de Liedekerke ,40.0,1210.0,Brussel,Bruxelles-Brussel,materiaalkamer,,,,50.850996962213,4.375958798628
4985.0,,Borrewaterstraat ,182.0,2170.0,Merksem,Antwerpen,inkomhal  food avenue ,,,,51.237133849057,4.447727587283
4986.0,,Boomsesteenweg,32.0,2630.0,Aartselaar,Antwerpen,"productieruimte,glvl",,,,51.130444920217,4.374517111282
4987.0,,A. van der Pluymstraat,1.0,2160.0,Wommelgem,Antwerpen,"efter, 1° verdieping",,,,51.208593049649,4.527532106511
4989.0,,Rue des Eoles ,17.0,7321.0,Blaton,Hainaut,"rez,àdroit à l entrée,vestiaire",,,,50.499947979348,3.658673411076
4990.0,,Rue du Chapitre,1.0,7000.0,Mons,Hainaut,palier 1er étage,,,,50.453115729826,3.947216488396
4991.0,,Albert Dejonghestraat ,2.0,3010.0,Kessel-Lo,Vlaams-Brabant,clubhouse,,,,50.876677227615,4.7277820598
4992.0,,Avenue Amédée Hesse,9.0,4900.0,Spa,Liège,local maître nageur,,,,50.497159194433,5.87772988988
4996.0,,Rue de Flémalle-Grande ,22.0,4400.0,Flémalle,Liège,1er étage-mur du couloir,,,,50.605045729599,5.480094079617
4997.0,,Grand Route ,410.0,4400.0,Flémalle,Liège,"rez,mur de droite à côté l accueil",,,,50.597972325328,5.466979921547
4998.0,,Van Eycklaan ,7.0,2370.0,Arendonk,Antwerpen,aan de ingang vh zwembad,,,,51.321953805779,5.085459074511
5000.0,,Heikant z/n ,,2370.0,Arendonk,Antwerpen,aan centrale gebouw op sportvelden,,,,51.331642088968,5.080786011113
5001.0,,De Brulen ,2.0,2370.0,Arendonk,Antwerpen,thv ingang gemeenteschool,,,,51.337753902812,5.101166174329
5002.0,,Kerkstraat ,11.0,2370.0,Arendonk,Antwerpen,thv hoofdtoegang,,,,51.316712140719,5.085875319823
5006.0,,Cooppallaan ,91.0,9230.0,Wetteren,Oost-Vlaanderen,buitengevel receptiegebouw,,,,51.007954972334,3.862115696008
5007.0,,Place Dupuits,,5650.0,Walcourt,Namur,hall accueil,,,,50.259226093015,4.315736556481
5008.0,,Rue Saint Roch ,24.0,5650.0,Walcourt,Namur,salle de sports,,,,50.265023391817,4.459025303116
5009.0,,Allée des Sports ,5.0,1480.0,Tubize,Brabant Wallon,"hall d entrée, niveau 2",,,,50.68536594542,4.200501509104
5010.0,,Rue de Corenne,13.0,5620.0,Florennes,Namur,salle de garde,,,,50.249586105463,4.616626624305
5011.0,,Chaussée de Charleroi ,274.0,5000.0,Namur,Namur, atelier remise,,,,50.452643074306,4.834860118495
5012.0,,Rue des Genets  ,3.0,6700.0,Arlon,Luxembourg, salle de garde,,,,49.690144108464,5.810253809118
5013.0,,Rue de Marlida,14.0,6900.0,Aye,Luxembourg,salle de garde,,,,50.204350859953,5.316734223308
5014.0,,Chaussée de Neufchateau ,36.0,6640.0,Vaux-sur-Sûre,Luxembourg,hall d accueil,,,,49.910309882793,5.565293527006
5015.0,,Groenstraat ,50.0,1210.0,Brussel,Bruxelles-Brussel,receptie,,,,50.8572587468,4.364601906559
5016.0,,Louizapoort ,203.0,1050.0,Bruxelles,Bruxelles-Brussel," 5de verd, vergaderruimte",,,,50.826686132153,4.363902939653
5017.0,,Schaarbeeklei ,189.0,1800.0,Vilvoorde,Vlaams-Brabant,,,,,50.919801700357,4.427044654464
5018.0,,Rue du Marechal,1.0,7904.0,Pipaix,Hainaut,rez de ch,,,,50.584004302781,3.580205721585
5019.0,,Rue de Botrange ,137.0,4950.0,Robertville,Liège,Rue de Botrange 137,,,,50.511471336014,6.074564133805
5020.0,,All. d/l Découverte ,6.0,4000.0,Liège,Liège,"bât B65,hall d entrée,rdc",,,,50.585153796983,5.561625438538
5021.0,,Rue Louvrex ,14.0,4000.0,Liège,Liège,"bât N1,rez de ch,hall",,,,50.637139072938,5.562789433432
5022.0,,"Q.Hôpit, Av. de l Hôpital  ",1.0,4000.0,Liège,Liège,"B35A,rdc,hall entrée",,,,50.572176431572,5.566974685326
5023.0,,Boulevard de la Constitution ,41.0,4000.0,Liège,Liège,bât E1-ancien A3,,,,50.64361677535,5.585143885382
5024.0,,Wespelaarsesteenweg,85.0,3150.0,Haacht,Vlaams-Brabant,hoofdingang,,,,50.970331668374,4.635943223087
5025.0,,Neysetterstraat,5.0,3150.0,Haacht,Vlaams-Brabant,kerk,,,,50.962366471515,4.606470188408
5026.0,,Hagenbroeksesteenweg,163.0,2500.0,Lier,Antwerpen,"glvl, keuken",,,,51.148222853033,4.567454524602
5027.0,,Middelmolenlaan ,148.0,2100.0,Deurne,Antwerpen,inkomhal aan receptie,,,,51.235671227413,4.469183349434
5028.0,,Edegemsesteenweg,100.0,2610.0,Wilrijk,Antwerpen,"tennishal, links",,,,51.165138329922,4.409332771045
5029.0,,Rue L. François,10.0,5170.0,Bois-de-Villers,Namur,club house du club,,,,50.396871776505,4.828108998401
5030.0,,Koningin Maria Hendrika Plein,70.0,9000.0,Gent,Oost-Vlaanderen,"1°verd,onth",,,,51.036745678185,3.708143655075
5031.0,,Rue de l Ecluse ,21.0,6000.0,Charleroi,Hainaut,à l accueil rez de ch,,,,50.412219586043,4.395050762405
5034.0,,Liersebaan ,12.0,2240.0,Zandhoven,Antwerpen,"inkomhal,achter balie",,,,51.214064420766,4.659698291058
5035.0,,Populierenhoeve,22.0,2240.0,Zandhoven,Antwerpen,inkomhal links,,,,51.205231906476,4.644436102661
5036.0,,Schildebaan ,22.0,2240.0,Zandhoven,Antwerpen,niv sportvloer-1rechts nst lift,,,,51.215789290711,4.654639812491
5037.0,,Avenue A. Fleming,4.0,1348.0,Louvain-la-Neuve,Brabant Wallon,"hall, rez de ch",,,,50.662410008098,4.637114677875
5038.0,,Rue du Centenaire ,89.0,4452.0,Paifve,Liège,,,,,50.725516435097,5.526313570107
5039.0,,Rue du Perron ,3.0,4681.0,Hermalle-sous-Argenteau,Liège,grande salle situé dans le bar,,,,50.735142212703,5.693904946416
5040.0,,Rue Saint-Siméon,21.0,4682.0,Houtain-Saint-Siméon,Liège,local paroissial,,,,50.738980931657,5.609860242641
5041.0,,Avenue Franklin Roosevelt,39.0,4600.0,Visé,Liège,devant-le-pont,,,,50.737494803377,5.684914852346
5042.0,,Rue de l Eglise,10.0,4537.0,Verlaine,Liège,petite salle de réception,,,,50.608239444256,5.317971643674
5043.0,,Rue des Martyrs,17.0,4690.0,Wonck,Liège,,,,,50.769139128164,5.631100854665
5044.0,,Rue de la Vaulx ,27.0,4610.0,Retinne,Liège,rentré dans le parking,,,,50.626808902318,5.705043468448
5045.0,,Rue de Jemeppe ,45.0,4431.0,Loncin,Liège,au bout d un sentier de pierres,,,,50.664880406421,5.502887072741
5046.0,,Avenue des Erables ,,4300.0,Waremme,Liège,rez de ch,,,,50.688292310693,5.254769471821
5047.0,,Neerveld,1.0,2550.0,Kontich,Antwerpen,"in gebouw N,in bureel verzending,glvl",,,,51.119796634242,4.457328638275
5048.0,,Watertorenstraat,35.0,2250.0,Olen,Antwerpen,Aurubis-Afdeling conform,,,,51.177771492478,4.880763611235
5050.0,,Grensstraat,9.0,2600.0,Berchem,Antwerpen,EHBO lokaal,,,,51.195617528258,4.471686000224
5051.0,,Sint Laurentiusstraat ,19.0,3300.0,Goetsenhoven,Vlaams-Brabant,"rechts v toegangspoort,gl",Y,,,50.769411917203,4.957316454946
5052.0,,Neerlintersesteenweg ,22.0,3300.0,Oplinter,Vlaams-Brabant,"rechts vooraan zaal ,glvl",Y,,,50.829846654474,4.992047373667
5053.0,,Booiebos ,27.0,9031.0,Drongen,Oost-Vlaanderen, onthaal,,,,51.03981492158,3.5975146031
5054.0,,Rue Warichet,1.0,1457.0,Walhain,Brabant Wallon,salle de gymnastique,,,,50.636186134366,4.662509078468
5055.0,,Chaussée de Namur ,23.0,5360.0,Hamois,Namur,"rez,près de l entrée principa",,,,50.337255867355,5.067506211376
5057.0,,J.P. De Nayerlaan,5.0,2860.0,Sint-Katelijne-Waver,Antwerpen,"inkomhal hoofdgebouw,niv 0",,,,51.067891405461,4.499918932328
5059.0,,Molenstraat,8.0,2018.0,Antwerpen,Antwerpen,inkomhal,,,,51.281333258972,4.41714244169
5060.0,,Antwerpsestraat ,99.0,2500.0,Lier,Antwerpen, inkom,,,,51.133972611806,4.566455066468
5061.0,,Stationsplein,9.0,8660.0,Adinkerke,West-Vlaanderen,thv ingang station kant rijweg,,,,51.077404404561,2.602334424202
5062.0,,Sint-Truidersteenweg ,17.0,3700.0,s,Limburg,gang links v hoofdingang,,,,50.762938489561,5.27267617419
5063.0,,Rode Kruislaan ,27.0,3700.0,s,Limburg,rechts aan hoofdingang,,,,51.06072,5.217
5064.0,,Watertorenstraat  ,5.0,3700.0,s,Limburg,"eetzaal leerkrachten,glvl",,,,50.8,3.85
5065.0,,Tongersesteenweg ,84.0,3840.0,Bommershoven,Limburg,hoofdingang links,,,,50.799918817729,5.356023053339
5066.0,,Chrysantenlaan ,50.0,1850.0,Grimbergen,Vlaams-Brabant,ingang zorgcentrum,,,,50.938679590327,4.359682902861
5067.0,,Zeedijk ,,8400.0,Oostende,West-Vlaanderen,ingang aan receptie,,,,51.207150537842,2.85907731204
5068.0,,Gistelse Steenweg ,,8200.0,Sint-Andries,West-Vlaanderen,"glvl, bergruimte",,,,51.197951887486,3.184639355027
5069.0,,Rue Georges De Lombaerdestraat,55.0,1140.0,Brussel,Bruxelles-Brussel,ingang kantine,,,,50.858652070565,4.420396715598
5070.0,,Vaartkant,3.0,9991.0,Adegem,Oost-Vlaanderen,ontvangst-glvl,,,,51.207582024488,3.51377561852
5071.0,,Rue de l Aité ,40.0,4432.0,Alleur,Liège,local pétanque Centre Paroissal,,,,50.674284692236,5.510875194106
5072.0,,Route Militaire ,374.0,4432.0,Alleur,Liège,Espace Vital SA,,,,50.680000144374,5.511670133803
5073.0,,Rue de l Yser ,236.0,4430.0,Ans,Liège,"dans un petit chemin,porte fer",,,,50.660418551723,5.520867009424
5074.0,,Europalaan,22.0,9880.0,Aalter,Oost-Vlaanderen,inkomhal,,,,51.087340061128,3.444492483253
5075.0,Appareil fixe-Vast apparaat,Lindestraat ,17.0,9880.0,Aalter,Oost-Vlaanderen,zwembad - redderslokaal,Non-Nee,Non-Nee,werkdagen tussen 7u15 en 22u00,51.081954101604,3.438849534578
5076.0,,Damstraat2 ,2.0,9230.0,Wetteren,Oost-Vlaanderen,onthaalpost,,,,51.010875814134,3.864133387741
5078.0,,Bruul ,49.0,2800.0,Mechelen,Antwerpen,klantendienst 1ste verdiep,,,,51.026052129933,4.481453264356
5079.0,,Bredabaan ,967.0,2900.0,Schoten,Antwerpen,klantendienst 1ste verdiep,,,,51.257849429388,4.465316256725
5080.0,,Diestsestraat,67.0,3000.0,Leuven,Vlaams-Brabant,klantendienst 1ste verdiep,,,,50.880733733476,4.704534935162
5081.0,,Meir ,80.0,2000.0,Antwerpen,Antwerpen,klantendienst 1ste verdiep,,,,51.217956808963,4.411472168011
5082.0,,Steenstraat ,13.0,8000.0,Brugge,West-Vlaanderen,klantendienst 1ste verdiep,,,,51.207834110226,3.224171308439
5083.0,,Kapellestraat ,18.0,8400.0,Oostende,West-Vlaanderen,klantendienst 2de verdiep,,,,51.230905717812,2.918347680438
5084.0,,Kapelstraat,100.0,9100.0,Sint-Niklaas,Oost-Vlaanderen,klantendienst 1ste verdiep,,,,51.153155393504,4.153508033675
5085.0,,Veldstraat ,86.0,9000.0,Gent,Oost-Vlaanderen,klantendienst 4de verdiep,,,,51.051191427303,3.721157230307
5086.0,,Place d Armes ,17.0,5000.0,Namur,Namur,service clientele 3ème étage,,,,50.463232519321,4.867129858987
5087.0,,Place de la république française ,15.0,4000.0,Liège,Liège,"3° étage,clien",,,,50.643479856962,5.572794492158
5088.0,,Boulevard Joseph Tirou ,109.0,6000.0,Charleroi,Hainaut,"3ème étage,service clie",,,,50.408368646357,4.443190295456
5089.0,,Avenue Louise,12.0,1060.0,Bruxelles,Bruxelles-Brussel,service clientele 3ème étage,,,,50.835131360607,4.356065524908
5090.0,,Chaussée de Waterloo ,699.0,1180.0,Bruxelles,Bruxelles-Brussel,"1er étage stand ""delsey",,,,50.815876704089,4.366736777298
5091.0,,Rue Saint Lambert,,1200.0,Bruxelles,Bruxelles-Brussel,"woluwe shopping,2ème étage servi",,,,50.841315873618,4.435768004793
5092.0,,Rue Neuve ,129.0,1000.0,Bruxelles,Bruxelles-Brussel,"rez de ch, rayon bagage",,,,50.85411606429,4.357445444102
5093.0,,Rue Joseph Bouche ,23.0,5310.0,Eghezée,Namur,,,,,50.606901692509,4.91833457021
5094.0,,Rue du Beau Site,26.0,1000.0,Bruxelles,Bruxelles-Brussel,couloir à côté des tribunes,,,,50.829406269281,4.363715436479
5095.0,,Rue Stroobants,48.0,1140.0,Bruxelles,Bruxelles-Brussel,infirmerie,,,,50.879153868212,4.392797263307
5096.0,,Rue du Sceptre ,,1050.0,Bruxelles,Bruxelles-Brussel,salle de fitness sous l esc,,,,50.833843480421,4.377130020569
5097.0,,Place Destrée,8.0,6200.0,Châtelet,Hainaut,salle de sport,,,,50.43105527313,4.519556809459
5098.0,,Rue Gendebien ,55.0,6200.0,Châtelet,Hainaut,hall d entrée,,,,50.41651790981,4.522543197741
5099.0,,Rue des Ecoles ,15.0,6200.0,Châtelet,Hainaut,cuisine salle de Gym,,,,50.401811860689,4.513855606557
5100.0,,Rue de l Eglise ,1.0,6200.0,Châtelet,Hainaut,salle commune à côté des toilett,,,,50.436844295797,4.513706928073
5101.0,,Rue Haute,13.0,6200.0,Châtelet,Hainaut,salle de boxe,,,,50.390059594247,4.514229439438
5102.0,,Rue des Campagnes,1.0,6200.0,Châtelet,Hainaut,cafétaria,,,,50.40173558537,4.514988420771
5103.0,,Rue de Couillet,146.0,6200.0,Châtelet,Hainaut,hall d entrée,,,,50.401941067726,4.511808242887
5104.0,,Rue de Couillet ,146.0,6200.0,Châtelet,Hainaut,cafétaria à côté de la cuisine,,,,50.401941067726,4.511808242887
5105.0,,Place Wilson ,116.0,6200.0,Châtelet,Hainaut,hall d entrée,,,,50.416798284471,4.518170358854
5106.0,,Rue des Sabliers,87.0,6200.0,Châtelet,Hainaut,cafétaria,,,,50.397916812953,4.53153065104
5107.0,,Rue des Campagnes ,1.0,6200.0,Châtelet,Hainaut,cafétaria,,,,50.40173558537,4.514988420771
5108.0,,Rue des Haies ,293.0,6200.0,Châtelet,Hainaut,cafétaria,,,,50.419930685507,4.506507275862
5110.0,,Raambeekweg ,4.0,3140.0,Keerbergen,Vlaams-Brabant,"1ste verd,kantine,bij de toog",,,,51.009698198647,4.614163602057
5113.0,,Rue de Carochette,6.0,7380.0,Baisieux,Hainaut,usage professionnel,,,,50.39173614252,3.69825108149
5114.0,,Rue Kennedy ,150.0,6250.0,Aiseau-Presles,Hainaut,"bâtiment administratif,3 étages",,,,50.416529351108,4.571074249489
5115.0,,Rue Lambot,99.0,6250.0,Aiseau-Presles,Hainaut,,,,,50.424770103034,4.588426381624
5116.0,,Rue J.B. Loriaux,3.0,6210.0,Frasnes-lez-Gosselies,Hainaut,rez de ch,,,,50.531258955845,4.449773274572
5117.0,,Place de la Résistance,10.0,7711.0,Dottignies,Hainaut,local équipement,,,,50.727500724945,3.305512901072
5118.0,,Rue Curicale ,7.0,7700.0,Luingne,Hainaut,secretariat,,,,50.739471339965,3.235910499113
5119.0,,Rue Cavalier Fonck ,15.0,4890.0,Thimister-Clermont,Liège,hall omnisports rez - 1,,,,50.65113037095,5.863217758457
5120.0,,Befve ,5.0,4890.0,Thimister-Clermont,Liège,hall d entrée du bâtiment,,,,50.663192374941,5.852494577809
5121.0,,Rue Piste de Ski ,6.0,6690.0,Vielsalm,Luxembourg,cafetaria,,,,50.3283514,5.9334874
5122.0,,Rue de la Station,11.0,4347.0,Fexhe-le-Haut-Clocher,Liège,"salle de gym,rez,dans cuisine",,,,50.662469399186,5.398789085095
5123.0,,"Grand Route, Voroux-Goreux ",40.0,4347.0,Fexhe-le-Haut-Clocher,Liège,"salle buvette,mur",,,,50.655044131361,5.425931206227
5124.0,,Rue de la Station ,27.0,4347.0,Fexhe-le-Haut-Clocher,Liège,"rez,bureau accueil,mur gauche",,,,50.664072935779,5.399140317645
5125.0,,Rue Passage des Déportés ,2.0,5030.0,Gembloux,Namur,"Bâtiment 5,réception",,,,50.562278619298,4.6948965847
5126.0,,Rue Passage des Déportés ,2.0,5030.0,Gembloux,Namur,"Bâtiment 9,réception",,,,50.562278619298,4.6948965847
5127.0,,Rue Passage des Déportés ,2.0,5030.0,Gembloux,Namur,"Bâtiment 126,réception",,,,50.562278619298,4.6948965847
5128.0,,Avenue de la Faculté,13.0,5030.0,Gembloux,Namur,"Bâtiment 29,réception",,,,50.554290177,4.709099008
5129.0,,Avenue Maréchal Juin ,13.0,5030.0,Gembloux,Namur,"Bâtiment 48,réception",,,,50.562529322022,4.700839018776
5130.0,,Avenue Maréchal Juin ,27.0,5030.0,Gembloux,Namur,"Bâtiment 52,réception",,,,50.561837925117,4.69981903274
5132.0,,Rue de Barchon ,57.0,4670.0,Blégny,Liège,"salle rez,entre-deux""toilettes""",,,,50.679080622479,5.695559546232
5133.0,,Rue André Ruwet ,61.0,4670.0,Blégny,Liège,"grande salle,rez,entrée à gauch",,,,50.670180138744,5.719679020802
5134.0,,Rue de Trembleur,13.0,4670.0,Blégny,Liège,salle au rez de ch,,,,50.706792123154,5.714394645688
5135.0,,Rue Julien Ghuysen ,,4670.0,Blégny,Liège,"bulle omnisports,rez de ch",,,,50.670648886166,5.727791345222
5136.0,,Rue Del Potale,40.0,4671.0,Barchon,Liège,"rez de ch,dans la cafetaria",,,,50.669941651771,5.699678381488
5137.0,,Rue Del Potale,42.0,4671.0,Barchon,Liège,salle rez de ch,,,,50.669941651771,5.699678381488
5138.0,,Rue des Anémones,2.0,4671.0,Saive,Liège,"rez de ch, cafetaria",,,,50.640872498341,5.677762993461
5139.0,,Rue Haute Saive,1.0,4671.0,Saive,Liège,rez de ch,,,,50.653660809926,5.680426929929
5140.0,,Rue du Progrès,18.0,1400.0,Nivelles,Brabant Wallon,Bloc B33-RDC inkomhal,,,,50.592858472517,4.366194262456
5141.0,,Rue de la Grande Lecke ,1.0,1320.0,Beauvechain,Brabant Wallon,wachtlokaal P1,,,,50.753990176509,4.783591254076
5142.0,,Rue de la Grande Lecke,1.0,1320.0,Beauvechain,Brabant Wallon,wachtlokaal P2,,,,50.753990176509,4.783591254076
5143.0,,Eversestraat,1.0,1140.0,Brussel,Bruxelles-Brussel,Blok 1 nst lokaal AO28,,,,50.871972339634,4.419844599636
5144.0,,Eversestraat ,1.0,1140.0,Brussel,Bruxelles-Brussel,Blok 8 sportaccomodaties Inganssas,,,,50.871972339634,4.419844599636
5145.0,,Rue des Petits Carmes ,20.0,1000.0,Bruxelles,Bruxelles-Brussel,au pied de l escalier,,,,50.840036198888,4.358612282369
5146.0,,Martelarenlaan ,181.0,1800.0,Peutie,Vlaams-Brabant,wachtlokaal D1,,,,50.934851491328,4.463532336272
5147.0,,Hertogstraat ,184.0,3001.0,Heverlee,Vlaams-Brabant,verzorgingslokaal centr in Kwarti,,,,50.853662155966,4.70855958979
5148.0,,Naamsesteenweg ,100.0,3050.0,Oud-Heverlee,Vlaams-Brabant,Hal vh Wachtlokaal,,,,50.816120701291,4.703474372953
5154.0,,Avenue de la Renaissance,30.0,1000.0,Brussel,Bruxelles-Brussel,wachtlokaal,,,,50.843414357325,4.391619881797
5155.0,,Avenue de la Renaissance ,30.0,1000.0,Brussel,Bruxelles-Brussel,zwembad,,,,50.843414357325,4.391619881797
5156.0,,Route des Gohineaux,3.0,6880.0,Bertrix,Luxembourg,Poort v Zadm vh Kwartier,,,,49.879232007023,5.240084484797
5157.0,,Chaussée de Liège,65.0,6900.0,Marche-en-Famenne,Luxembourg,gebouw schietschijven kamp,,,,50.239182235784,5.349481397005
5158.0,,Chaussée de Liège,65.0,6900.0,Marche-en-Famenne,Luxembourg,hoofdwachtlokaal,,,,50.239182235784,5.349481397005
5159.0,,Chaussée de Liège,65.0,6900.0,Marche-en-Famenne,Luxembourg, sportzaal blok C9,,,,50.239182235784,5.349481397005
5160.0,,Route Militaire,,4540.0,Amay,Liège,Wachtpost Blok A11,,,,50.538695949535,5.299986066912
5161.0,,Rue Roi Chevalier ,13.0,5024.0,Namur,Namur,Wachtlokaal kwartier Roman,,,,50.482274736502,4.960246600658
5162.0,,Rue Roi Chevalier ,13.0,5024.0,Namur,Namur,Wachtlokaal kwartier Wartet,,,,50.482274736502,4.960246600658
5163.0,,Avenue du 12ième de Ligne,1.0,4900.0,Spa,Liège,,,,,50.487699807982,5.84077252662
5164.0,,Rue de Bellmerin,,4700.0,Eupen,Liège,ocal de Garde,,,,50.620304578318,6.047701323274
5165.0,,Kaliebaan ,30.0,2460.0,Tielen,Antwerpen,Wachtlokaal,,,,51.244909405357,4.912264731206
5166.0,,I. Du Monceau de Bergendal Vliegveld,,3990.0,Peer,Limburg,,,,,50.39851,3.75372
5167.0,,Kemmelseweg,5.0,8900.0,Ieper,West-Vlaanderen,Wachtlokaal,,,,50.835844618658,2.885200941416
5168.0,,Kattestraat,19.0,8920.0,Langemark-Poelkapelle,West-Vlaanderen,Blok 4D Wachtlokaal,,,,50.922249922054,2.977103993332
5169.0,,Kruibeeksesteenweg ,159.0,2070.0,Burcht,Antwerpen,Wachtlokaal Blok W lokaal 7,,,,51.195184016225,4.324483519571
5170.0,,Graaf Jansdijk,1.0,8380.0,ZeebruggeBrugge),West-Vlaanderen,inkomhal Blok B4 Sportcomplex,,,,51.335469922642,3.205598866797
5171.0,,Graaf Jansdijk,1.0,8380.0,ZeebruggeBrugge),West-Vlaanderen,inkomhal Blok A5 Messcomplex,,,,51.335469922642,3.205598866797
5172.0,,Koningin Elisabethlaan ,,3970.0,Leopoldsburg,Limburg,Sporthal Cx Noord MG19,,,,51.119664682967,5.27683043518
5173.0,,Leopold I-laan(wachtlokaal CX Zuid ,,3970.0,Leopoldsburg,Limburg,wachtlokaal CX Zuid MG D16,,,,51.115142605445,5.261264010185
5174.0,,Leopold I-laan ,,3970.0,Leopoldsburg,Limburg, CBRN-Sta CX Zuid,,,,51.115142605445,5.261264010185
5175.0,,Leopold I-laan ,,3970.0,Leopoldsburg,Limburg,Wachtlokaal Cx Noord MG A16,,,,51.115142605445,5.261264010185
5176.0,,Bevrijdingsstraat,31.0,2280.0,Grobbendonk,Antwerpen,Blok 4 - buiten,,,,51.184759259131,4.742392484385
5177.0,,Cazerne - Karrestraat ),,3290.0,Schaffen,Vlaams-Brabant,buitenkant infirmerie,,,,50.998140565832,5.067409453991
5178.0,,Luikersteenweg ,371.0,3800.0,Sint-Truiden,Limburg,Hangar 5,,,,50.784499426738,5.234651838073
5179.0,,Luikersteenweg ,371.0,3800.0,Sint-Truiden,Limburg,Bloc 17,,,,50.784499426738,5.234651838073
5180.0,,Luikersteenweg ,371.0,3800.0,Sint-Truiden,Limburg,Bloc 43,,,,50.784499426738,5.234651838073
5181.0,,Rue de Dave,270.0,5100.0,JambesNamur,Namur,Corps de Garde,,,,50.446799043774,4.867250306936
5182.0,,Rue Joseph Durieux ,80.0,5020.0,Flawinne,Namur,extérieur Ecole du Sport,,,,50.466433819601,4.818324383729
5183.0,,Route Charlemagne,191.0,5620.0,Florennes,Namur,BAT F66,,,,50.226118481478,4.654253525286
5184.0,,Route Charlemagne,191.0,5620.0,Florennes,Namur,salle de sport BAT D54,,,,50.226118481478,4.654253525286
5185.0,,Koningslei ,,2930.0,Brasschaat,Antwerpen,W10 - wachtlokaal,,,,51.328156486053,4.514239069497
5186.0,,Koningslei,,2930.0,Brasschaat,Antwerpen,A36 - mess all-ranks,,,,51.328156486053,4.514239069497
5187.0,,Leopold de Bruynestraat ,125.0,8310.0,Sint-KruisBrugge,West-Vlaanderen,wachtlokaal,,,,51.211527931137,3.25910573977
5188.0,,3de & 23ste Linieregimentsplein,,8400.0,Oostende,West-Vlaanderen,,,,,51.222923149438,2.925337512663
5189.0,,Matrozenlaan ,16.0,8620.0,Nieuwpoort,West-Vlaanderen,Blok G4-07,,,,51.15315489059,2.735171663917
5190.0,,Vandammestraat ,100.0,8670.0,Koksijde,West-Vlaanderen,Zone Maintenance Buiten,,,,51.102085253737,2.637226275465
5191.0,,Vandammestraat ,100.0,8670.0,Koksijde,West-Vlaanderen,Kant kazerne binnen,,,,51.102085253737,2.637226275465
5192.0,,Route du camp ,1.0,4750.0,Bütgenbach,Liège,,,,,50.47322948951,6.144800542921
5193.0,,Rue François-Lefebvre ,50.0,4000.0,Liège,Liège,,,,,50.678639300484,5.547627911692
5194.0,,Route de Bouillon ,86.0,6700.0,Arlon,Luxembourg,,,,,49.686878977423,5.783284100655
5195.0,,Avenue Decraene ,,7500.0,Tournai,Hainaut,buitenzijde BM 6,,,,50.605113512603,3.403763242736
5196.0,,Rue de la Citadelle ,,7500.0,Tournai,Hainaut,Hoofdingang BM 32,,,,50.599308534025,3.392355328186
5197.0,,Martelarenlaan,181.0,1800.0,Peutie,Vlaams-Brabant,sportcomplex,,,,50.934851491328,4.463532336272
5198.0,,Haachtsesteenweg ,138.0,1820.0,Steenokkerzeel,Vlaams-Brabant,"blok 130,2de verdieping",,,,50.916220071221,4.493204944065
5199.0,,Haachtsesteenweg ,138.0,1820.0,Steenokkerzeel,Vlaams-Brabant,wachtlokaal blok 21,,,,50.916220071221,4.493204944065
5200.0,,Molenstraat ,69.0,9890.0,Gavere,Oost-Vlaanderen,,,,,50.925967386424,3.66864661857
5202.0,,Basijnsmolenstraat,2.0,8840.0,Oostnieuwkerke,West-Vlaanderen,voorgevel gebouw,,,,50.939710899694,3.058779846439
5203.0,,Ooststraat,4.0,8840.0,Staden,West-Vlaanderen,voorgevel gebouw,,,,50.97495474898,3.020766155338
5204.0,,Kapellensteenweg ,501.0,2920.0,Kalmthout,Antwerpen,"B-gebouw,centrale trappenhal",,,,51.361792949662,4.4685421998
5205.0,,Guldensporenpark ,87.0,9820.0,Merelbeke,Oost-Vlaanderen,"3de verdieping, aan de balie",,,,51.005305913745,3.754342106988
5206.0,,Square de l atomiumsquare,,1020.0,Brussel,Bruxelles-Brussel,"Centrale Bol,2de verd",,,,50.896996719797,4.344399068869
5207.0,,Square de l atomium,,1020.0,Brussel,Bruxelles-Brussel,"Bovenste Bol,restaurant aan WC",,,,50.896996719797,4.344399068869
5208.0,,Square de l Atomium ,,1020.0,Brussel,Bruxelles-Brussel,"gelijkvloers, ticket desk",,,,50.896996719797,4.344399068869
5209.0,,Rue Montoyer,24.0,1000.0,Brussel,Bruxelles-Brussel,glvl lokaal achter balie,,,,50.841377429125,4.369938077577
5210.0,,Hagenbroeksesteenweg,167.0,2500.0,Lier,Antwerpen,glvl aan balie,,,,51.14893296787,4.564990580345
5211.0,,Industrielaan ,29.0,8820.0,Torhout,West-Vlaanderen,glvl aan trappenhal,,,,51.073156078846,3.105714900003
5212.0,,Egemstraat ,47.0,8740.0,Pittem,West-Vlaanderen,"centrale hal, 2de deur rechts",,,,50.998084149788,3.264345770359
5213.0,,Houtdok-Noordkaai ,25.0,2030.0,Antwerpen,Antwerpen,"2de verd,links van lift",,,,51.237465416192,4.413254663541
5214.0,,Rue du Pont Simon,2.0,5544.0,Agimont,Namur,,,,,50.163247347885,4.808335753534
5215.0,,Smallestraat,2.0,2400.0,Mol,Antwerpen,inkomhal schouwburg Rex,,,,51.188825839753,5.119170502349
5216.0,,Rue Donveau ,45.0,5621.0,Hanzinelle,Namur,"entrée par la grille,suivre tout dr",,,,50.285985400102,4.564773069958
5217.0,,Technologielaan ,15.0,3001.0,Heverlee,Vlaams-Brabant,"gebouw C,glvl,gang nst EHBOloka",,,,50.852984269547,4.73452655819
5218.0,,Rue Van Kalck ,93.0,1080.0,Bruxelles,Bruxelles-Brussel, rez de ch de complexe,,,,50.854033390458,4.311521660682
5219.0,,Avenue des Hannetons,50.0,1170.0,Bruxelles,Bruxelles-Brussel,l entrée principale,,,,50.810001157601,4.409740969729
5220.0,,Gemeenteplein ,13.0,3560.0,Lummen,Limburg,tegen de muur vh gebouw,,,,50.986713218031,5.191562569324
5221.0,,Breendonkdorp,66.0,2870.0,Breendonk,Antwerpen,bezoekerscentrum brouwerij Duvel,,,,51.043305816615,4.326077170822
5222.0,,Rijksweg,43.0,2870.0,Puurs,Antwerpen,Duvel Events,,,,51.063834648143,4.323634768056
5223.0,,Rue Quesnoit ,2.0,7890.0,Wodecq,Hainaut,buvette,,,,50.709657497103,3.749504659208
5224.0,,Henry Fordlaan,37.0,3600.0,Genk,Limburg,gang produktie bureel,,,,50.915209800431,5.493617609839
5225.0,,Rue Haute ,5.0,5140.0,Ligny,Namur,"rez de ch,couloir entrée principal",,,,50.511290286906,4.575131509721
5226.0,,Rue de l Ecluse ,10.0,6000.0,Charleroi,Hainaut,local infirmerie 4° étage,,,,50.411704350455,4.395504139548
5227.0,,Rue du Berceau ,24.0,1495.0,Marbais,Brabant Wallon,accueil,,,,50.546486065977,4.532132597888
5228.0,,Duinenwater,43.0,8300.0,Knokke,West-Vlaanderen,op glvl naast de balie,,,,51.338547375676,3.274126780813
5229.0,,Terlindehofstraat ,150.0,2170.0,Merksem,Antwerpen,EHBO lokaal,,,,51.246309350825,4.442709090394
5230.0,,Hundelgemsesteenweg,618.0,9820.0,Merelbeke,Oost-Vlaanderen,parking/binnenkoer,,,,50.995130995752,3.745177669332
5231.0,,Leuvensesteenweg ,129.0,2800.0,Mechelen,Antwerpen, glvl,,,,51.018809746494,4.494196523211
5232.0,,Jozef Verbertstraat,61.0,2800.0,Mechelen,Antwerpen,glvl,,,,51.00094765937,4.484562196063
5233.0,,Klein Begijnhof,16.0,2800.0,Mechelen,Antwerpen,glvl,,,,51.032231646139,4.477545788734
5234.0,,Schijfstraat,215.0,2800.0,Mechelen,Antwerpen,glvl,,,,51.039987837358,4.474251671545
5235.0,,Karmelietenstraat ,13.0,2800.0,Mechelen,Antwerpen, glvl,,,,51.025443017029,4.47384534612
5236.0,,Battelsesteenweg ,50.0,2800.0,Mechelen,Antwerpen,glvl,,,,51.029319144333,4.46907889306
5237.0,,Frans Broerstraat,1.0,2800.0,Mechelen,Antwerpen,glvl,,,,51.031073392849,4.464287126653
5238.0,,Hendrik Speeqvest ,,2800.0,Mechelen,Antwerpen,glvl,,,,51.020995302712,4.484680377155
5239.0,,Lange Schipstraat,27.0,2800.0,Mechelen,Antwerpen,glvl,,,,51.025132383697,4.480212826505
5240.0,,Schaalstraat ,46.0,2800.0,Mechelen,Antwerpen,glvl,,,,51.026101405624,4.479895369881
5241.0,,Rue du Moulin ,4.0,6870.0,Mirwart,Luxembourg,accueil hall CDN,,,,50.057033798684,5.26243348851
5242.0,,Gemeenteplein,1.0,3040.0,Huldenberg,Vlaams-Brabant,op buitenmuur vh gemeentehuis,,,,50.789044429916,4.583943236891
5244.0,,St. Jansbergsteenweg ,39.0,3040.0,Huldenberg,Vlaams-Brabant,buitenmuur gemeentezaal,,,,50.807666252743,4.606819629952
5245.0,,Donkerstraat ,1.0,3040.0,Neerijse,Vlaams-Brabant,op buitenmuur vd gemeentezaal,,,,50.817535105542,4.622986896254
5246.0,,Leuvesebaan ,313.0,3040.0,Sint-Agatha-Rode,Vlaams-Brabant,op buitenmuur vd gemeentezaal,,,,50.783867850333,4.633845148903
5247.0,,Pastorijstraat ,3.0,3040.0,Ottenburg,Vlaams-Brabant,op buitenmuur vd gemeentezaal,,,,50.751821616459,4.614306407031
5248.0,,Rue des Weines,65.0,4800.0,Verviers,Liège,ateliers 1 er étage,,,,50.583768855121,5.83858296547
5249.0,,Rue Des Arbalestriers ,,7070.0,Le,Hainaut,cafetaria,,,,50.7340413,5.6959873
5250.0,,Chaussée de Waterloo ,220.0,1640.0,Rhode-Saint-Genèse,Vlaams-Brabant,hall accueil,,,,50.743370936598,4.393992798586
5251.0,,Avenue du Parc D Amée,7.0,5100.0,JambesNamur),Namur,bureau service technique,,,,50.439976803232,4.865873076425
5252.0,,Avenue du Parc d Amée,1.0,5100.0,JambesNamur),Namur,1er étage,,,,50.440699029919,4.8662543692
5253.0,,Avenue du Parc D Amée,1.0,5100.0,JambesNamur),Namur,salle ca-cap,,,,50.440699029919,4.8662543692
5254.0,,Rue Duhainaut,72.0,5100.0,JambesNamur),Namur,1er étage,,,,50.440956521985,4.864342037991
5255.0,,Place Gutenberg ,15.0,4102.0,Ougrée,Liège,local des toilettes,,,,50.592995821774,5.53777842109
5256.0,,Rue du Chene ,18.0,6900.0,Waha,Luxembourg,local gymnastique,,,,50.209974027337,5.342004320278
5257.0,,Rue de Fierlant ,17.0,1190.0,Bruxelles,Bruxelles-Brussel,"rez de ch,niveau poste accueil",,,,50.827687266668,4.330926604723
5258.0,,Rue du Curé,9.0,1190.0,Bruxelles,Bruxelles-Brussel,"rez de ch, niveau poste accueil",,,,50.810860596043,4.318735210373
5259.0,,Rue des Cinq Visages,6.0,7000.0,Mons,Hainaut,"1er étage,vestiaire",,,,50.452251555609,3.946228513469
5260.0,,Rue des Canonniers ,3.0,7000.0,Mons,Hainaut,salle de gym,,,,50.447458364278,3.947806239104
5261.0,,Rue Achille Legrand,12.0,7000.0,Mons,Hainaut,salle de gym,,,,50.449887547169,3.945942846747
5262.0,,Rue du Rossignol,12.0,7000.0,Mons,Hainaut,salle de gym,,,,50.458297129003,3.95417279748
5263.0,,Rue Ferrer ,1.0,7033.0,Mons,Hainaut,salle de gym,,,,50.436745831015,3.922610321977
5264.0,,Rue des Amandiers ,1.0,7033.0,Mons,Hainaut,salle de gym,,,,50.430277725882,3.924577051739
5265.0,,Rue Sentier du Vicaire,,7011.0,Mons,Hainaut,salle de gym,,,,50.475103955536,3.904895649271
5266.0,,Rue Victor Baudour ,42.0,7021.0,Mons,Hainaut,salle de gym,,,,50.461683836981,4.046498790405
5267.0,,Rue Cité des Espinois,1.0,7020.0,Mons,Hainaut,salle de gym,,,,50.486378348659,3.958087649177
5268.0,,Rue Louis Pierard ,1.0,7022.0,Hyon,Hainaut,rdc - salle de gym,,,,50.440653180909,3.959868133049
5269.0,,Rue Hubinne ,,5360.0,Hamois,Namur,vestiaire,,,,50.340867241791,5.164794283088
5270.0,,Rodestraat ,125.0,1630.0,Linkebeek,Vlaams-Brabant,onthaal Hoofdgebouw,,,,50.758510749209,4.350319981738
5271.0,,Hoogstraat ,20.0,1930.0,Zaventem,Vlaams-Brabant,inkomhal rechts aan toiletten,,,,50.883461037131,4.477665482311
5272.0,,Rue des Fonds Gaillards,4.0,7100.0,La,Hainaut,1° étage accueil,,,,50.45996,4.18516
5273.0,,Chemin de l Inquiétude ,3.0,7000.0,Mons,Hainaut,2 ° étage accueil,,,,50.452533754866,3.936368906726
5274.0,,Square des Martyrs du 18 août,,6000.0,Charleroi,Hainaut,"vestiaire,1° étage",,,,50.405666777642,4.436919421775
5275.0,,Square des Martyrs du 18 Août,,6000.0,Charleroi,Hainaut,"ancien Block 20,rez",,,,50.405666777642,4.436919421775
5276.0,,Leuvensesteenweg ,194.0,1932.0,Sint-Stevens-Woluwe,Vlaams-Brabant,ingang,,,,50.866671330699,4.448336867824
5277.0,,Eversestraat ,,1932.0,Sint-Stevens-Woluwe,Vlaams-Brabant,Kuurzaal,,,,50.868992729873,4.434995039511
5278.0,,Fr. Smoldersstraat,,1932.0,Sint-Stevens-Woluwe,Vlaams-Brabant,clubhouse,,,,50.871006058652,4.457506178956
5279.0,,Tiende Schuurveld ,,1932.0,Sint-Stevens-Woluwe,Vlaams-Brabant,clubhouse,,,,50.870358840932,4.440295236387
5280.0,,Steenokkerzeelstraat,60.0,1930.0,Zaventem,Vlaams-Brabant,ingang naar links,,,,50.886677173379,4.477874443158
5281.0,,Quinkenstraat,,1930.0,Zaventem,Vlaams-Brabant,gang - kleedkamer,,,,50.887120502121,4.478290752445
5282.0,,Quinkenstraat,,1930.0,Zaventem,Vlaams-Brabant,gang - kleedkamer,,,,50.887120502121,4.478290752445
5283.0,,Tramlaan,,1933.0,Sterrebeek,Vlaams-Brabant,gang - kleedkamer,,,,50.86318264639,4.49281604105
5284.0,,Zeenstraat ,,1933.0,Sterrebeek,Vlaams-Brabant,gang - kleedkamer,,,,50.8617087518,4.503072232804
5285.0,,Zeenstraat,,1933.0,Sterrebeek,Vlaams-Brabant,gang - kleedkamer,,,,50.8617087518,4.503072232804
5286.0,,Mechelsesteenweg,,1930.0,Nossegem,Vlaams-Brabant,gang - kleedkamer,,,,50.880140062065,4.50704696435
5287.0,,Woluwelaan ,151.0,1831.0,Diegem,Vlaams-Brabant,"gang glvl operations DGO,nst EHBO",,,,50.891660633912,4.450158423022
5288.0,,Arthur Dezangrélaan ,17.0,1950.0,Kraainem,Vlaams-Brabant,rechtover receptie - glvl,,,,50.86155598092,4.465865019926
5289.0,,Hebronlaan ,17.0,1950.0,Kraainem,Vlaams-Brabant,"in inkom v turnzaal, glvl",,,,50.855713710587,4.459622513717
5290.0,,E. Bricartlaan,61.0,1950.0,Kraainem,Vlaams-Brabant,hall kleuterklassen en turnzaal,,,,50.862585613906,4.459528804039
5291.0,,Denoyerstraat ,74.0,1950.0,Kraainem,Vlaams-Brabant,ingang gemeentelijk depot,,,,50.861272421135,4.453235587316
5292.0,,Bosstraat ,85.0,1950.0,Kraainem,Vlaams-Brabant,in de hallingang voetbal,,,,50.856814966936,4.460361127025
5293.0,,Boulevard du Régent,37.0,1000.0,Bruxelles,Bruxelles-Brussel,2ème étage,,,,50.846192329585,4.368200173773
5294.0,,Rue des Champs ,71.0,1040.0,Bruxelles,Bruxelles-Brussel,1er étage côté caisse piscine ha,,,,50.830489378809,4.393908811917
5295.0,,Roosveld ,11.0,3400.0,Landen,Vlaams-Brabant,"magazijn, kantoor CM",,,,50.751422089874,5.057711454601
5296.0,,Heksenbergstraat,,3500.0,Hasselt,Limburg,kantine voetbalclub KHO Heide vzw,,,,50.949583429336,5.361970012731
5297.0,,Route de la Bruyère,3.0,5310.0,LongchampsLux.,Namur,sas salle de controle,,,,50.39478,4.61444
5298.0,,Rue de Meuse,9.0,4520.0,Wanze,Liège,couloir du laboratoire de l usine,,,,50.52708340008,5.199917903041
5299.0,,Brusselsesteenweg ,69.0,1861.0,Meise,Vlaams-Brabant,buitengevel,,,,50.935655893029,4.326586381119
5300.0,,Noulaertsplein ,2.0,2650.0,Edegem,Antwerpen,"glvl, praktijkruimte",,,,51.158466083537,4.432785000854
5301.0,,Rue Saint-Laurent ,16.0,1000.0,Brussel,Bruxelles-Brussel,"1° verdieping,rechts vestiair",,,,50.850301054702,4.359426332805
5302.0,,Oude-Heidestraat,94.0,3511.0,Kuringen,Limburg,1ste verdieping,,,,50.948916366766,5.340850551306
5303.0,,Centrum-Zuid ,2031.0,3530.0,Houthalen,Limburg,"inkomhal,receptie",,,,51.016289350119,5.367128991227
5304.0,,Damse Vaart Oost,1.0,8340.0,Damme,West-Vlaanderen,"keuken,bij deur nr eetzaal",,,,51.26653635002,3.298103801579
5305.0,,Kerkstraat ,1.0,1755.0,Oetingen,Vlaams-Brabant,buitengevel lagere school  de oester ,,,,50.77353019769,4.063943710208
5306.0,,Koningsstraat,47.0,1000.0,Brussel,Bruxelles-Brussel,"4° verd,rechts v receptie",,,,50.848976378724,4.363764051517
5307.0,,Rue fossé aux loups ,32.0,1000.0,Brussel,Bruxelles-Brussel, glvl aan trappenhal,,,,50.850351849036,4.354738837273
5308.0,,Leonardo Da Vincilaan ,19.0,1930.0,Zaventem,Vlaams-Brabant,"glvl, centrale hal",,,,50.892948761734,4.462192530269
5309.0,,Leonardo Da Vincilaan ,19.0,1930.0,Zaventem,Vlaams-Brabant,"glvl, centrale hal",,,,50.892948761734,4.462192530269
5310.0,,Leonardo Da Vincilaan ),19.0,1930.0,Zaventem,Vlaams-Brabant,"glvl, centrale hal",,,,50.892948761734,4.462192530269
5311.0,,Auguste Reyerslaan,80.0,1030.0,Bruxelles,Bruxelles-Brussel,"centr inkomhal,links v TV-di",,,,50.851079691598,4.401889724844
5312.0,,A. Demaeghtlaan ,30.0,1500.0,Halle,Vlaams-Brabant,eetzaal rusthuis,,,,50.740048182542,4.23689849872
5314.0,,Starrenhoflaan,35.0,2950.0,Kapellen,Antwerpen,inkomhal kantoorgebouw,,,,51.33005219108,4.408394500803
5315.0,,Adegem-Dorp ,16.0,9991.0,Maldegem,Oost-Vlaanderen,buitengevel,,,,51.202795178999,3.486604701709
5316.0,,Avenue Herman Debroux ,46.0,1160.0,Bruxelles,Bruxelles-Brussel,couloir toilettes,,,,50.864874269674,4.377612022275
5317.0,,Route de Bambois,2.0,5070.0,Fosses-la-Ville,Namur,"rez,accès restreint au personne",,,,50.393401219258,4.698650929924
5318.0,,Schupstraat,9.0,2018.0,Antwerpen,Antwerpen,"blok B, 10° verdiepingoffice",,,,51.21407707744,4.418489329712
5319.0,,Waregemsesteenweg ,22.0,9770.0,Kruishoutem,Oost-Vlaanderen,inkom,,,,50.904005836185,3.525840529951
5320.0,,Woestijnestraat,13.0,9770.0,Kruishoutem,Oost-Vlaanderen,inkom,,,,50.901606097306,3.527603076551
5321.0,,Steenakkerstraat,31.0,3950.0,Bocholt,Limburg,hoofdingang,,,,51.187420571776,5.509766184497
5323.0,,Nevenplein ,1.0,3950.0,Bocholt,Limburg,hoofdingang,,,,51.189466175246,5.518224111534
5324.0,,Klipperstraat ,15.0,2030.0,Antwerpen,Antwerpen,5° verd - hangt achter de balie,,,,51.24371443933,4.42413370331
5325.0,,Quai des Péniche,70.0,1000.0,Bruxelles,Bruxelles-Brussel, 3° étage entre piscine,,,,50.86441785603,4.35235502401
5326.0,,Rue Aimable Vigneron Collin ,21.0,5020.0,Flawinne,Namur,salle de stérilisat,,,,50.459028156688,4.810377836605
5327.0,,Waterloosesteenweg ,133.0,1180.0,Brussel,Bruxelles-Brussel,galerie Fort Jaco op -1,,,,50.828178446194,4.344151068639
5328.0,,Sterckxstraat,7.0,1060.0,Brussel,Bruxelles-Brussel,op glvl naast de Post,,,,50.888621355821,4.339845871711
5329.0,,Hundelgemsesteenweg ,746.0,9820.0,Merelbeke,Oost-Vlaanderen,,,,,50.988316759927,3.746231861294
5330.0,,Avenue Dewandre,49.0,4650.0,Herve,Liège,hall accueil,,,,50.643212893346,5.794688782559
5331.0,,Rue Malgarny ,161.0,4420.0,Saint-NicolasLg.),Liège,défibrillateur volant,,,,50.624748273112,5.523796736041
5332.0,,Rue Malgarny ,161.0,4420.0,Saint-NicolasLg.),Liège, défibrillateur volant,,,,50.624748273112,5.523796736041
5333.0,,Avenue de Broqueville ,12.0,1150.0,Bruxelles,Bruxelles-Brussel,local reunion,,,,50.838171434979,4.409934926969
5335.0,,Chaussée de Wavre ,341.0,1390.0,Grez-Doiceau,Brabant Wallon,défibrillateur volant,,,,50.736450814926,4.655837398352
5336.0,,Chaussée de Wavre ,341.0,1390.0,Grez-Doiceau,Brabant Wallon,défibrillateur volant,,,,50.736450814926,4.655837398352
5337.0,,Chaussée de Wavre ,341.0,1390.0,Grez-Doiceau,Brabant Wallon,défibrillateur volant,,,,50.736450814926,4.655837398352
5338.0,,Chaussée de Wavre ,341.0,1390.0,Grez-Doiceau,Brabant Wallon,cafetaria,,,,50.736450814926,4.655837398352
5339.0,Appareil fixe-Vast apparaat,Avenue de la Libération,39.0,6791.0,Aubange,Luxembourg,Hall d accueil.,Oui-Ja,Oui-Ja,,49.564544851689,5.822760614484
5340.0,,Rue du Château,49.0,1420.0,Braine-l Alleud,Brabant Wallon,hall accueil,,,,50.681252652165,4.36643360386
5341.0,,Rue du Château,49.0,1420.0,Braine-l Alleud,Brabant Wallon,hall accueil,,,,50.681252652165,4.36643360386
5342.0,,Rue Ernest Laurent ,215.0,1420.0,Braine-l Alleud,Brabant Wallon,salle de sport étage,,,,50.679443711731,4.387913907127
5343.0,,Rue Ernest Laurent ,215.0,1420.0,Braine-l Alleud,Brabant Wallon,hall accueil,,,,50.679443711731,4.387913907127
5344.0,,Allée des Aubépines,2.0,1400.0,Nivelles,Brabant Wallon,hall accueil,,,,50.603756760528,4.349863419472
5345.0,,Champs Delmée ,3.0,7600.0,Péruwelz,Hainaut,hall accueil,,,,50.510101272031,3.531773408657
5346.0,,Kortrijksesteenweg ,264.0,8530.0,Harelbeke,West-Vlaanderen,"1° verdieping,controlezaal",,,,50.845964760913,3.292321378036
5347.0,,Prins-Bisschopssingel ,67.0,3500.0,Hasselt,Limburg,,,,,50.915862415412,5.332928479339
5348.0,,Zeelaan,2.0,8380.0,Brugge,West-Vlaanderen,aan de hoofdingang,,,,51.2561032275,3.194504232702
5349.0,,Chemin de l Oasis ,2.0,7000.0,Mons,Hainaut,,,,,50.46241021271,3.978988511478
5350.0,,Olympiadenlaan,2.0,1140.0,Brussel,Bruxelles-Brussel,inkomhal,,,,50.870464519072,4.406142199601
5351.0,,Blancefloerlaan ,181.0,2050.0,Antwerpen,Antwerpen,inkomhal,,,,51.219155002022,4.369464667686
5352.0,,Eugeen Coolsstraat,5.0,3460.0,Bekkevoort,Vlaams-Brabant,Einkomhal,,,,50.943887895413,4.97534819179
5353.0,,Kleine Nieuwedijkstraat,53.0,2800.0,Mechelen,Antwerpen,inkomhal,,,,51.03723777972,4.487391088385
5354.0,,Kleine Nieuwedijkstraat,53.0,2800.0,Mechelen,Antwerpen,inkomhal,,,,51.03723777972,4.487391088385
5355.0,,Rue Godefroid de Bouillon,2.0,1470.0,Baisy-thy,Brabant Wallon,hall salle de sport,,,,50.596226374896,4.472130492549
5356.0,,Rue en Bois ,270.0,4040.0,Herstal,Liège,centrale gang achter receptie,,,,50.683648547884,5.63533053763
5357.0,,Markt ,1.0,8000.0,Brugge,West-Vlaanderen,"glvl, Staff Room, kluisje 112",,,,51.209245245535,3.225067082432
5358.0,,Rue d Oignies,3.0,6250.0,Aiseau,Hainaut,"rez,salle principale,placé au mur",,,,50.426020054345,4.595387468392
5359.0,,Rue de la Madeleine ,31.0,6111.0,Landelies,Hainaut,"rez, pied à terre,buvette",,,,50.382210241671,4.352695744974
5360.0,,Place du Théâtre ,5.0,5000.0,Namur,Namur,accueil - sas entrée gauche,,,,50.464648097039,4.867944663795
5361.0,,Rue du Plateau d Hastedon,3.0,5000.0,Namur,Namur, accueil,,,,50.480842143521,4.841659853627
5362.0,,Place Albert Ier ,1.0,7170.0,Manage,Hainaut,"rez, entrée de gauche",,,,50.490285852179,4.227555809852
5363.0,,Place Albert Ier ,1.0,7170.0,Manage,Hainaut,"1° étage,bureau du Cons en Prév",,,,50.490285852179,4.227555809852
5364.0,,Rue Lambert-le-Bègue,44.0,4000.0,Liège,Liège,inkomhal,,,,50.639874968044,5.563741617633
5365.0,,Vogelstang,7.0,3790.0,Fouron-Saint-Martin,Limburg,inkomhal,,,,50.747423502965,5.814775175329
5366.0,,Rue du Moulin ,10.0,4180.0,Hamoir,Liège,inkomhal,,,,50.424746801343,5.532166066362
5367.0,,Holenweg ,2.0,3910.0,Neerpelt,Limburg,"glvl,sportclubhuis,kleedkamers",,,,51.238163272495,5.457510801711
5368.0,,Jan Van Rijswijcklaan,184.0,2020.0,Antwerpen,Antwerpen,mobiel toestel Events,,,,51.190021434422,4.395627856439
5369.0,,Jan Van Rijswijcklaan ,184.0,2020.0,Antwerpen,Antwerpen,mobiel toestel Events,,,,51.190021434422,4.395627856439
5370.0,,Jan Van Rijswijcklaan ,162.0,2020.0,Antwerpen,Antwerpen,"glvl,keuken acht onthaal",,,,51.192415599335,4.397864986396
5371.0,,Jan Van Rijswijcklaan 1,184.0,2020.0,Antwerpen,Antwerpen,"1° verd,kantoor landscha",,,,51.19773475509,4.409885809016
5373.0,,Coupure Rechts ,102.0,9000.0,Gent,Oost-Vlaanderen,zone refter personeel,,,,51.047381821193,3.715583418293
5374.0,,Thonissenlaan,11.0,3500.0,Hasselt,Limburg,zone refter personeel glvl,,,,50.931160520264,5.33346936355
5376.0,,Kwadestraat,151.0,8800.0,Roeselare,West-Vlaanderen,kantoor kitchenette +5,,,,50.919977887962,3.175049416337
5377.0,,Rue Mionvaux,33.0,6900.0,Marche-en-Famenne,Luxembourg,"rez,local à côté de la piscine",,,,50.195039152259,5.310553072631
5378.0,,Rue de la Bonne Dame ,4.0,6681.0,Lavacherie,Luxembourg,"ecole communale,1er hall",,,,50.051576131979,5.51128951158
5380.0,,Avenue du monument ,8.0,6900.0,Marche-en-Famenne,Luxembourg,,,,,50.224207504757,5.342571691304
5381.0,,Rue du Termezart ,16.0,6740.0,Etalle,Luxembourg,salle de gymnastique,,,,49.668835340845,5.607422984022
5382.0,,Rue des Alliés,2.0,6800.0,Libramont-Chevigny,Luxembourg,entrée du batiment,,,,49.917957824617,5.383595323834
5386.0,,Rue de la Moselle ,7.0,6700.0,Arlon,Luxembourg,"rez,entrée ""Salle de Réunion",,,,49.677798734615,5.813290680829
5387.0,,Rue des Champs,,1040.0,Bruxelles,Bruxelles-Brussel,"rez,près de l ascenseur",,,,50.830484215781,4.392385916625
5388.0,,Sportlaan,4.0,3545.0,Halen,Limburg,Sportlaan 4B ,,,,50.946152978994,5.11424882414
5389.0,,Kruisstraat ,35.0,3545.0,Halen,Limburg,inkom sporthal thv Toezichterslokaa,,,,50.97297150687,5.122341041044
5390.0,,Chaussée de Wavre ,259.0,4520.0,Wanze,Liège,infirmerie bâtim production,,,,50.540294312192,5.191588134128
5391.0,,Rue de l Yser ,,4430.0,Ans,Liège,"rez,à côté de la porte vitré",,,,50.663829325473,5.511561705796
5392.0,,Avenue Greiner ,1.0,4100.0,Seraing,Liège,"rez,à gauche de la petite porte",,,,50.615643095512,5.51196987066
5393.0,,Rue Ernest Solvay ,107.0,4000.0,Liège,Liège,"rez,à droite d l porte d ent",,,,50.60931597399,5.563976730017
5394.0,,Aardorenstraat,1.0,3300.0,Tienen,Vlaams-Brabant,nst inkomdeur-medische dienst,,,,50.802091700398,4.948127374495
5395.0,,Aandorenstraat,1.0,3300.0,Tienen,Vlaams-Brabant," onthaal, glvl, hoofdgebouw",,,,50.802091700398,4.948127374495
5396.0,,Rue Vecmont ,21.0,6980.0,La,Luxembourg,Logo LS FRAISentreprise d tranchag,,,,50.15084,5.52053
5397.0,,Rue de l Aurore,227.0,5100.0,Namur,Namur,salle musculationentre hal1+2,,,,50.458509233062,4.888520978805
5398.0,,Grote Markt,1.0,9100.0,Sint-Niklaas,Oost-Vlaanderen,"voorgevel,links nst hoofdingang",,,,51.164810262232,4.139206495201
5399.0,,Azalealaan ,29.0,9100.0,Sint-Niklaas,Oost-Vlaanderen,inkomhal niv + 0,,,,51.161681130138,4.154635902566
5400.0,,Abingdonstraat ,99.0,9100.0,Sint-Niklaas,Oost-Vlaanderen,inkomhal/wachtruimte thv balie,,,,51.158172675016,4.142210401661
5401.0,,Parklaan ,177.0,9100.0,Sint-Niklaas,Oost-Vlaanderen,"in EHBO-lokaal,1ste verdieping",,,,51.156447430569,4.153529563942
5402.0,,Kapelstraat ,2.0,1560.0,Hoeilaart,Vlaams-Brabant,in voetbalcantine,,,,50.765374922364,4.482823984527
5403.0,,Kapeldreef ,,3001.0,Heverlee,Vlaams-Brabant,"Imec 1,glvl,inkomhal",,,,50.861704655619,4.670681948587
5404.0,,Kapeldreef,,3001.0,Heverlee,Vlaams-Brabant,,,,,50.861704655619,4.670681948587
5405.0,,Kapeldreef ,,3001.0,Heverlee,Vlaams-Brabant,"Imec 5- 1ste verd, JAVA corner",,,,50.861704655619,4.670681948587
5406.0,,Achterbos,27.0,2400.0,Mol,Antwerpen,glvl-sporthal,,,,51.201479158109,5.094690770314
5407.0,,Gemeenteheistraat ,1.0,2400.0,Mol,Antwerpen,glvl-sporthal,,,,51.221285262714,5.207351057421
5408.0,,Benzineweg,11.0,2020.0,Antwerpen,Antwerpen,nst inkom refter fabriek,,,,51.196149988657,4.346757672889
5409.0,,Heuvelstraat,57.0,3090.0,Overijse,Vlaams-Brabant,turnzaal 2de verdiep,,,,50.772033483149,4.53331930774
5411.0,,Waversesteenweg,96.0,3090.0,Overijse,Vlaams-Brabant,sportzaal Lipsius,,,,50.771197262579,4.542506627991
5412.0,,Begijnhof ,11.0,3090.0,Overijse,Vlaams-Brabant,Begijnhof 11 glvl,,,,50.769739607707,4.53683308537
5413.0,,Hoeilaartsesteenweg ,56.0,3090.0,Overijse,Vlaams-Brabant,buitenmuur De Rank,,,,50.749825043953,4.516846688705
5417.0,,Heurkstraat ,3.0,3090.0,Overijse,Vlaams-Brabant,sportzaal,,,,50.765485540389,4.536789918568
5418.0,,Rue de la Station,19.0,1300.0,Limal,Brabant Wallon,"rez,couloir principal vers wc",,,,50.689219818771,4.574620548903
5419.0,,Kielsbroek,29.0,2020.0,Antwerpen,Antwerpen,"glvl,in bureelruimte v expeditiehal",,,,51.198403421416,4.374962944712
5420.0,,Nijverheidstraat ,9.0,8600.0,Diksmuide,West-Vlaanderen,in centrale hal op glvl,,,,51.026543854282,2.859381075417
5421.0,,Hasseltse Dreef ,105.0,3512.0,Stevoort,Limburg,gelijkvloers,,,,50.918717082086,5.253453620362
5422.0,,rue Guimard ,,1040.0,Bruxelles,Bruxelles-Brussel,couloir près de l imprimante,,,,50.843891888226,4.369325292919
5423.0,,Rachels,55.0,3650.0,Lanklaar,Limburg,gebouw poort 2:centraal magazijn,,,,51.002708110494,5.720225212034
5424.0,,1ère Avenue ,32.0,4040.0,Herstal,Liège,bij wachtpost 24/24 bemand,,,,50.697254669246,5.570027458281
5425.0,,Endepoelstraat ,5.0,3210.0,Linden,Vlaams-Brabant,"Enieuw gebouw,glvl,aan ingang wc s",,,,50.892776726229,4.792188771438
5426.0,,Romeinse straat ,14.0,3001.0,Heverlee,Vlaams-Brabant,"EHBO lokaal,glvl,kantoorgebouw",,,,50.844101505747,4.737665245653
5427.0,,Drève de Prieuré,19.0,1160.0,Bruxelles,Bruxelles-Brussel,bureau à gauche réception,,,,50.820705015594,4.437350120599
5428.0,,Godefriduskaai ,18.0,2000.0,Antwerpen,Antwerpen,aan de toiletten,,,,51.227893513268,4.406414192359
5429.0,,Rue Bonne Fortune ,17.0,4000.0,Liège,Liège,"salle de réunion,à gauche WC ",,,,50.639523263387,5.571756058173
5430.0,,Rue de la Gelée ,20.0,4800.0,Verviers,Liège,couloir technique,,,,50.621939287811,5.841207255535
5432.0,,J.E. Mommaertslaan,18.0,1831.0,Diegem,Vlaams-Brabant,"3de verd ,aan receptie",,,,50.888047782186,4.44426074831
5433.0,,Geldenaaksebaan ,464.0,3001.0,Leuven,Vlaams-Brabant,hoofdingangreceptieglvl,,,,50.847649397723,4.723517347464
5434.0,,Rue Van Opré ,91.0,5100.0,Jambes,Namur,"rez de ch,dans le hall",,,,50.459964331454,4.874726377835
5435.0,,Avenue Prince de Liège ,15.0,5100.0,Jambes,Namur,"rez de ch,dans le hall",,,,50.461794561922,4.87815658789
5436.0,,Place de la Wallonie,,5100.0,Jambes,Namur,"bât. 1 et 2rez,dans le hall",,,,50.456406402148,4.872548382204
5437.0,,Avenue Prince de Liège,7.0,5100.0,Jambes,Namur,"ez de ch,dans le hall",,,,50.461679017386,4.877672616801
5438.0,,Rue de l Ecluse,22.0,6000.0,Charleroi,Hainaut,"rez de ch, dans le hall",,,,50.412252820289,4.39502779599
5439.0,,Rue des Brigades d Irlande ,1.0,5100.0,Jambes,Namur,"rez de ch,dans le hal",,,,50.457540787969,4.87280415598
5440.0,,Breitwaterstraat ,12.0,3630.0,Maasmechelen,Limburg,glvl in showroom,,,,50.947631756285,5.701079855534
5441.0,,Slakweidestraat ,33.0,3630.0,Maasmechelen,Limburg,kantoor Bewaking,,,,50.940991067766,5.696926957787
5442.0,,Biezenstraat,,3300.0,Tienen,Vlaams-Brabant,ingang Gieterij,,,,50.802778675512,4.925493789068
5443.0,,Biezenstraat ,31.0,3300.0,Tienen,Vlaams-Brabant,Sociaal centrum Magazijn,,,,50.802477406904,4.925557897323
5444.0,,Sint-Amandusstraat,18.0,3511.0,Hasselt,Limburg,achter toog grote feestzaal,,,,50.966622089486,5.280328851789
5445.0,,Froissartlaan,95.0,1040.0,Bruxelles,Bruxelles-Brussel,5de étage,,,,50.840351819452,4.382887950345
5446.0,,Pastoor Woutersstraat ,22.0,1850.0,Grimbergen,Vlaams-Brabant, glvl app,,,,50.932277995596,4.370569737801
5447.0,,Wetstraat,51.0,1040.0,Brussel,Bruxelles-Brussel,"glvl, in hal aan opgang van trappen",,,,50.844525336681,4.372834025124
5449.0,,Route du Condroz,541.0,4031.0,Liège,Liège,shop entrée,,,,50.569602726293,5.554733083376
5450.0,,Rue Grande ,1.0,7387.0,Honnelles,Hainaut,défibrillateur portablemanifest loca,,,,50.349083020712,3.734634512253
5451.0,,Rue Grande ,1.0,7387.0,Honnelles,Hainaut,défibrillateur portablemanifest loca,,,,50.349083020712,3.734634512253
5452.0,,Rue St ROCH,25.0,4500.0,Huy,Liège,hall entrée manège,,,,50.511378715984,5.181131374641
5453.0,,Place Willy Deveson,4.0,7900.0,Leuze-en-Hainaut,Hainaut,cafetaria,,,,50.58714684592,3.685576218965
5454.0,,Rue de la Forge ,31.0,7900.0,Leuze-en-Hainaut,Hainaut,"sal d villa entrée,Rue d Ath 30",,,,50.566529627222,3.603678989971
5455.0,,Rue Espace Pierre Descamps ,22.0,7972.0,Aubechies,Hainaut,hall entrée,,,,50.574263644666,3.676929706031
5456.0,,Rue Bernard Hecquet ,22.0,7972.0,Stambruges,Hainaut,cafetaria,,,,50.50735723687,3.718554849654
5457.0,,Rue Porte à Camp,8.0,7971.0,Basècles,Hainaut,hall accueil,,,,50.524411234318,3.645375437869
5458.0,,Rue Porte à Camp ,8.0,7971.0,Basècles,Hainaut,cafetaria,,,,50.524411234318,3.645375437869
5459.0,,Rue Joseph Wauters ,1.0,7972.0,Beloeil,Hainaut,cafetaria,,,,50.520680239667,3.680281957463
5460.0,,Rue Joseph Wauters ,20.0,7972.0,Beloeil,Hainaut,salle de spectacle,,,,50.521149282243,3.681234389068
5461.0,,Grand Place ,1.0,7390.0,Quaregnon,Hainaut,accueil,,,,50.443505961654,3.864527421009
