id,type,address,number,postal_code,municipality,province,location,public,available,hours,latitude,longitude
15230.0,Appareil fixe-Vast apparaat,Polenplein,15.0,8850.0,ARDOOIE,West-Vlaanderen,Inkom,Oui-Ja,Oui-Ja,,50.979508762704,3.196985359861
15231.0,Appareil fixe-Vast apparaat,Robert Schumanplein,,1040.0,ETTERBEEK,Bruxelles-Brussel,6e verdieping inkom,Oui-Ja,Oui-Ja,,50.842691166592,4.383872117253
15232.0,Appareil fixe-Vast apparaat,Victor Rousseaulaan,208.0,1190.0,VORST,Bruxelles-Brussel,PC Lokaal,Oui-Ja,Oui-Ja,,50.809991099318,4.32601154052
15233.0,Appareil fixe-Vast apparaat,Smalle Heerweg,31.0,9041.0,OOSTAKKER,Oost-Vlaanderen,Volvo SML Office 8,Oui-Ja,Oui-Ja,,51.087525720283,3.785079803218
15234.0,Appareil fixe-Vast apparaat,BELHUTTEBAAN,,8680.0,KOEKELARE,West-Vlaanderen,"Gelijkvloers, gang aan de rechterkant van de muur in de groene AED kast",Oui-Ja,Non-Nee,altijd tijdens de schooluren beschikbaar en  s avonds en tijdens weekend beschikbaar voor gebruikers zaal,51.082293390092,2.985608937239
15803.0,Appareil fixe-Vast apparaat,Rode Kruislaan,34.0,3960.0,Bree,Limburg,"Buitenkant gebouw, zijde bezoekersparking.",Oui-Ja,Oui-Ja,,51.136297081195,5.598734303191
15804.0,Appareil fixe-Vast apparaat,Rue du Fortin,24.0,600.0,Bastogne,Luxembourg,,Oui-Ja,Non-Nee,,49.987900450346,5.701848723045
15805.0,Appareil fixe-Vast apparaat,Rue De La Papetrie,0.0,6760.0,Virton,Luxembourg,,Oui-Ja,Non-Nee,,49.554577694931,5.508262183872
15806.0,Appareil fixe-Vast apparaat,Rue De La Papetrie,0.0,6760.0,Virton,Luxembourg,,Oui-Ja,Non-Nee,,49.554577694931,5.508262183872
15807.0,Appareil fixe-Vast apparaat,Rue De La Papetrie,0.0,6760.0,Virton,Luxembourg,,Oui-Ja,Non-Nee,,49.554577694931,5.508262183872
15808.0,Appareil fixe-Vast apparaat,Mercatorstrasse,16.0,4780.0,Saint Vith,Liège,,Oui-Ja,Non-Nee,,50.288354251668,6.090236364906
15709.0,Appareil fixe-Vast apparaat,Am Herrenbruhl,35.0,4780.0,Saint Vith,Liège,,Oui-Ja,Non-Nee,,50.277208122554,6.116217247265
15809.0,Appareil fixe-Vast apparaat,Industrieweg ,1098.0,3540.0,Herk-de-Stad,Limburg,Ingang (links van poort) terreinen werkplaatsen Stad Herk-de-Stad,Oui-Ja,Oui-Ja,,50.944434437409,5.172034243668
12505.0,Appareil fixe-Vast apparaat,Worriken,9.0,4750.0,Bütgenbach,Liège,"entre mi-juin et mi-septembre: à la plage
entre mi-septembre et mi-juin: à la réception.",Non-Nee,Non-Nee,mi-juin et mi-septembre: 10h00-19h00; mi-septembre et mi-juin: 9h00 à 16h30,50.425064894569,6.222250166453
15810.0,Appareil fixe-Vast apparaat,Eikenlaan,6.0,3950.0,Bocholt,Limburg,Hulpdienstlokaal Rode Kruis afdeling Bocholt Kaulille,Non-Nee,Oui-Ja,,51.166612371414,5.570340773822
10713.0,Appareil fixe-Vast apparaat,Sint-Laurentiusplein ,1.0,8950.0,Heuvelland,West-Vlaanderen,hangt aan het bezoekerscentrum te Kemmel,Oui-Ja,Oui-Ja,,50.783836795382,2.826270713856
8163.0,Appareil fixe-Vast apparaat,Vierstraat,31.0,8950.0,Heuvelland,West-Vlaanderen,aan de sporthal te Wijtschate,Oui-Ja,Oui-Ja,,50.789410928632,2.877016515879
15811.0,Appareil fixe-Vast apparaat,Hospicestraat,1.0,8950.0,Heuvelland,West-Vlaanderen,aan de serviceflats,Oui-Ja,Oui-Ja,,50.788958908598,2.886624158815
15812.0,Appareil fixe-Vast apparaat,Dikkebusstraat,236.0,8950.0,Heuvelland,West-Vlaanderen,aan OC De Klakeye,Oui-Ja,Oui-Ja,,50.767293097809,2.78156574945
15813.0,Appareil fixe-Vast apparaat,Dikkebusstraat,158.0,8950.0,Heuvelland,West-Vlaanderen,aan de overkant van straat van de bank Fortis,Oui-Ja,Oui-Ja,,50.782453529901,2.771470585266
15814.0,Appareil fixe-Vast apparaat,Dikkebusstraat,39.0,8950.0,Heuvelland,West-Vlaanderen,aan de Kerk van De Klijte,Oui-Ja,Oui-Ja,,50.799926403351,2.799974169023
15815.0,Appareil fixe-Vast apparaat, du chapitre ,3.0,7080.0,Frameries,Hainaut,Bureau d acceuil,Oui-Ja,Non-Nee,selon l horaire d ouverture du centre sportif,50.414715567734,3.895047041177
15816.0,Appareil fixe-Vast apparaat,chapitre,3.0,7080.0,frameries,Hainaut,Dojo,Oui-Ja,Non-Nee,suivant l horaire d ouverture du centre sportif,50.414715567734,3.895047041177
15817.0,Appareil fixe-Vast apparaat,des dames,79.0,7080.0,Frameries,Hainaut,Buvette RSB football,Oui-Ja,Non-Nee,selon l horaire d ouverture du club,50.413844292245,3.890282494896
7149.0,Appareil fixe-Vast apparaat,des dames,79.0,7080.0,frameries,Hainaut,Buvette du club house,Oui-Ja,Non-Nee,selon l ouverture du club,50.413844292245,3.890282494896
13963.0,Appareil fixe-Vast apparaat,des dames,79.0,7080.0,frameries,Hainaut,hall de tennis,Oui-Ja,Non-Nee,selon l ouverture du club,50.413844292245,3.890282494896
15819.0,Appareil fixe-Vast apparaat,Place du marché ,1.0,6870.0,Saint Hubert,Luxembourg,Hall d entrée ,Oui-Ja,Non-Nee,,50.025063292135,5.373906262859
15820.0,Appareil fixe-Vast apparaat,Place du marché,1.0,6870.0,Saint Hubert ,Luxembourg,Halle d entrée ,Oui-Ja,Non-Nee,,50.025063292135,5.373906262859
15821.0,Appareil fixe-Vast apparaat,Palce du marché,1.0,6870.0,sAINT HUBERT,Luxembourg,dANS LA CLASSE PRËT DE LA CUISINE,Oui-Ja,Oui-Ja,,50.025063292135,5.373906262859
15822.0,Appareil fixe-Vast apparaat,Place du marché,1.0,6870.0,Saint hubert,Luxembourg,Hall d entrée au dessus de l imprimante,Oui-Ja,Non-Nee,,50.025063292135,5.373906262859
15823.0,Appareil fixe-Vast apparaat,Place du marche,1.0,6870.0,Saint hubert,Luxembourg,Hall d entrée,Oui-Ja,Non-Nee,,50.025063292135,5.373906262859
15824.0,Appareil fixe-Vast apparaat,Place du marché,1.0,6870.0,Saint hubert,Luxembourg,Hall d entrée,Oui-Ja,Non-Nee,,50.025063292135,5.373906262859
15825.0,Appareil fixe-Vast apparaat,Place du marché ,1.0,6870.0,Saint hubert,Luxembourg,Entrepôt service travaux,Oui-Ja,Non-Nee,,50.025063292135,5.373906262859
15826.0,Appareil fixe-Vast apparaat,Place du marché,1.0,6870.0,Saint hubert,Luxembourg,,Oui-Ja,Non-Nee,,50.025063292135,5.373906262859
15827.0,Appareil fixe-Vast apparaat,Place du marché,1.0,6870.0,Saint hubert,Luxembourg,,Oui-Ja,Non-Nee,,50.025063292135,5.373906262859
15828.0,Appareil fixe-Vast apparaat,Place du marché,1.0,6870.0,Saint Hubert,Luxembourg,,Oui-Ja,Non-Nee,,50.025063292135,5.373906262859
15818.0,Appareil fixe-Vast apparaat,Place du marché ,1.0,6870.0,Saint hubert,Luxembourg,,Non-Nee,Oui-Ja,,50.025063292135,5.373906262859
15829.0,Appareil fixe-Vast apparaat,Rue sohet,21.0,4000.0,Liége,Liège,Couloir rez de chaussée ,Oui-Ja,Non-Nee,,50.627434295894,5.567465445757
15830.0,Appareil fixe-Vast apparaat,Potiérue,5.0,4000.0,Liège,Liège,Acceuil,Oui-Ja,Non-Nee,,50.645745946395,5.579289545109
15831.0,Appareil fixe-Vast apparaat,potiérue,5.0,4000.0,liege,Liège,Rez de chaussée - Local de soins ,Oui-Ja,Non-Nee,,50.645745946395,5.579289545109
15832.0,Appareil fixe-Vast apparaat,Potiérue,5.0,4000.0,Liége,Liège,3 eme / Local de soins,Oui-Ja,Non-Nee,,50.645745946395,5.579289545109
15833.0,Appareil fixe-Vast apparaat,Potiérue,5.0,4000.0,Liége,Liège,6ème étage/ Local de soins,Oui-Ja,Non-Nee,,50.645745946395,5.579289545109
15834.0,Appareil fixe-Vast apparaat,Place de l Université,16.0,1348.0,Louvain-la-Neuve,Brabant Wallon,"3ième étage, sur le palier.
Accès durant les horaires de bureau (jours ouvrables de 9h à 18h).
L ouverture de la porte d entrée du bâtiment via le bouton central sur le panneau de sonnettes.",Oui-Ja,Non-Nee,9h à 18h les jours ouvrables,50.670173634094,4.614988849483
9190.0,Appareil fixe-Vast apparaat,Rue Prunieau,5.0,6000.0,Charleroi,Hainaut,REz-de-chaussée,Oui-Ja,Non-Nee,8h-16h,50.407492988933,4.445403620808
8085.0,Appareil fixe-Vast apparaat,Karmelietenstraat,57.0,9500.0,Geraardsbergen,Oost-Vlaanderen,Gelijkvloers in gang aan speelplaats,Oui-Ja,Non-Nee,"Maandag, dinsdag, donderdag en vrijdag 08.00 uur tot 16.30 uur  Woensdag 08.00 uur tot 12.00 uur",50.775587577734,3.878743799347
15835.0,Appareil fixe-Vast apparaat,KAPELANIELAAN,12.0,9140.0,TEMSE,Oost-Vlaanderen,GELIJKVLOERS   INGANG PERSONEEL ,Non-Nee,Oui-Ja,,51.141483509513,4.181150879795
8086.0,Appareil fixe-Vast apparaat,Kleine Karmelietenstraat,3.0,9500.0,Geraardsbergen,Oost-Vlaanderen,Gang ingang aan secretariaat,Oui-Ja,Non-Nee,"Maandag, dinsdag, donderdag en vrijdag 08.00 uur tot 16.30 uur Woensdag 08.00 uur tot 12.00 uur",50.774792973313,3.877439072299
15836.0,Appareil fixe-Vast apparaat,Kerkdreef,4.0,3210.0,Linden,Vlaams-Brabant,binnen in het gebouw,Oui-Ja,Non-Nee,Enkel tijdens voetbalwedstrijden of trainingen,50.895281448446,4.764574926703
15837.0,Appareil fixe-Vast apparaat,Martelarenplaats ,1.0,3210.0,Linden,Vlaams-Brabant,Gebouw-Sporthal,Oui-Ja,Non-Nee,tijdens training en sportwedstrijden,50.894851833999,4.767596183702
15838.0,Appareil fixe-Vast apparaat,Kerkplein ,2.0,3212.0,Pellenberg,Vlaams-Brabant,gebouw- Sporthal,Oui-Ja,Non-Nee,tijdens training en sportwedstrijden,50.871165581453,4.793569522348
15839.0,Appareil fixe-Vast apparaat,Plein,51.0,3212.0,Pellenberg,Vlaams-Brabant,gebouw - Voetbal kantine,Oui-Ja,Non-Nee,tijdens training en voetbalwedstrijden,50.88297974825,4.795830708368
15840.0,Appareil fixe-Vast apparaat,kerkplein,2.0,3212.0,Pellenberg,Vlaams-Brabant,gebouw - sporthal,Oui-Ja,Non-Nee,tijdens training en sportwedstijden,50.871165581453,4.793569522348
15841.0,Appareil fixe-Vast apparaat,Meenselstraat,118.0,3211.0,Binkom,Vlaams-Brabant,gebouw - voetbal kantine,Oui-Ja,Non-Nee,tijdens training en voetbalwedstrijden,50.880695847273,4.90052922857
15842.0,Appareil fixe-Vast apparaat,Gellenberg ,14.0,3210.0,Lubbeek,Vlaams-Brabant,gebouw - sporthal,Oui-Ja,Non-Nee,tijdens training en sportwedstrijden,50.883045504281,4.840606583674
15843.0,Appareil fixe-Vast apparaat,Staatsbaan,124.0,3210.0,Lubbeek,Vlaams-Brabant,gebouw - dienstencentrum,Oui-Ja,Non-Nee,maandag  tot vrijdag van 9u-17u,50.895785536103,4.820299663032
15844.0,Appareil fixe-Vast apparaat,Dorpstraat ,18.0,3210.0,Lubbeek,Vlaams-Brabant,gebouw - school,Oui-Ja,Non-Nee,tijdens de schooluren,50.879174406118,4.844328567779
15845.0,Appareil fixe-Vast apparaat,Sint-Jorisstraat,4520.0,3800.0,Sint-Truiden,Limburg,"Het toestel is aangebracht in het grote magazijn van de verzending (Warehouse) tegen de
wand van de kantoren op het gelijkvloers.",Non-Nee,Oui-Ja,,50.82365045828,5.205796633477
15846.0,Appareil fixe-Vast apparaat,Bollenberg,86.0,3210.0,Lubbeek,Vlaams-Brabant,gebouw - gemeentelijke Loods,Oui-Ja,Non-Nee,"Van maandag tot donderdag van 8u tot 16u30, vrijdag van 8u tot 12u",50.879346989505,4.82386465409
15847.0,Appareil fixe-Vast apparaat,Schoolstraat,4.0,3211.0,Binkom,Vlaams-Brabant,Gebouw - school,Oui-Ja,Non-Nee,schooluren,50.872314447012,4.883816803286
15848.0,Appareil fixe-Vast apparaat,Rue du chéne,22.0,1000.0,Bruxelles,Bruxelles-Brussel,,Oui-Ja,Non-Nee,,50.844239262326,4.351352129295
15849.0,Appareil fixe-Vast apparaat,rue bara,160.0,1070.0,Bruxelles,Bruxelles-Brussel,,Oui-Ja,Non-Nee,,50.834150049293,4.329662613724
15850.0,Appareil fixe-Vast apparaat,Rue des prés de la Mercire,18.0,6880.0,Bertirx,Luxembourg,,Oui-Ja,Non-Nee,,49.862453632572,5.282914633631
15452.0,Appareil fixe-Vast apparaat,Meistraat ,5.0,2000.0,Antwerpen,Antwerpen,Gelijkvloers - onthaal campus,Non-Nee,Non-Nee,Elke werkdag tussen 8u en 20u,51.216210271798,4.410772111458
15851.0,Appareil fixe-Vast apparaat,Mutsaardstraat ,31.0,2000.0,Antwerpen,Antwerpen,Gelijkvloers - onthaal,Non-Nee,Non-Nee,Elke werkdag tussen 8u en 20u,51.222992656391,4.406751983057
15852.0,Appareil fixe-Vast apparaat,Krekelberg ,1.0,9040.0,Sint-Amandsberg,Oost-Vlaanderen,gelijkvloers - aan bureau directie,Non-Nee,Oui-Ja,,51.05318271604,3.749626448261
15853.0,Appareil fixe-Vast apparaat,Frederic Sheidlaan,1.0,2620.0,Hemiksem,Antwerpen,"1. Aan de achterkant van het hoofdgebouw
2. Binnen aan de ingang van het expeditiegebouw",Non-Nee,Oui-Ja,,51.136793394637,4.34146823098
15854.0,Appareil fixe-Vast apparaat,Kardinaal Cardijnlaan ,,2830.0,Willebroek,Antwerpen,Straatkant school St.-Jan Tisselt,Oui-Ja,Oui-Ja,,51.034494596987,4.351276346941
15855.0,Appareil fixe-Vast apparaat,Elfnovemberstraat,23.0,9030.0,Gent,Oost-Vlaanderen,buitengevel,Oui-Ja,Oui-Ja,,51.072488166891,3.678792744725
15856.0,Appareil fixe-Vast apparaat,Zandstraat,26.0,8434.0,Westende,West-Vlaanderen,Ingang Voetbal,Oui-Ja,Oui-Ja,,51.157135184227,2.777324574697
15857.0,Appareil fixe-Vast apparaat,Vaartdijk-Zuid,17.0,8432.0,Leffinge,West-Vlaanderen,"voetbalveld Leffinge, links aan de tribune",Oui-Ja,Oui-Ja,,51.171691804739,2.887738478783
15858.0,Appareil fixe-Vast apparaat,Slijpesteenweg,28.0,8432.0,Leffinge,West-Vlaanderen,ingang sporthal De Barloke,Oui-Ja,Oui-Ja,,51.170735303858,2.876433051599
15859.0,Appareil fixe-Vast apparaat,Naalstraat,,2570.0,Duffel ,Antwerpen,Voordeur tennisclub,Oui-Ja,Oui-Ja,,51.084037352565,4.509957665216
15860.0,Appareil fixe-Vast apparaat,Rue Pietro Ferrero,5.0,6700.0,Arlon,Luxembourg,,Oui-Ja,Non-Nee,,49.673616839421,5.820472438736
15861.0,Appareil fixe-Vast apparaat,Rue Pietro Ferrero,5.0,6700.0,Arlon,Luxembourg,,Oui-Ja,Non-Nee,,49.673616839421,5.820472438736
15862.0,Appareil fixe-Vast apparaat,Boulevard de Merckem,60.0,5000.0,Namur,Namur,3eme etage ,Oui-Ja,Non-Nee,,50.469792406293,4.858106069666
15863.0,Appareil fixe-Vast apparaat,Boulevard de Merckem,60.0,500.0,namur,Namur,2eme etage,Oui-Ja,Non-Nee,,50.469792406293,4.858106069666
15864.0,Appareil fixe-Vast apparaat,Boulevard de Merckem,60.0,5000.0,NAmur,Namur,reception,Oui-Ja,Non-Nee,,50.469792406293,4.858106069666
15865.0,Appareil fixe-Vast apparaat,Boulevard de Merckem,60.0,5000.0,Namur,Namur,1er étage ,Oui-Ja,Non-Nee,,50.469792406293,4.858106069666
15867.0,Appareil fixe-Vast apparaat,Rue Santos-Dimont,1.0,6040.0,Gosselie ,Hainaut,,Oui-Ja,Non-Nee,,50.464965141864,4.459102218187
15868.0,Appareil fixe-Vast apparaat,Avenue Albert Einstein,2.0,1320.0,Ottignie louvain le neuve ,Brabant Wallon,,Oui-Ja,Non-Nee,,50.667032006177,4.625591589362
15869.0,Appareil fixe-Vast apparaat,Rue des artisans,12.0,5150.0,Floreffe,Namur,,Oui-Ja,Non-Nee,,50.44545503411,4.771263922566
15870.0,Appareil fixe-Vast apparaat,Ilgatlaan,23.0,3500.0,Hasselt ,West-Vlaanderen,,Oui-Ja,Non-Nee,,50.921202819292,5.353651896749
15871.0,Appareil fixe-Vast apparaat,Bouleard Simon Bolivar,36.0,1000.0,Bruxelles,Bruxelles-Brussel,8 étage,Oui-Ja,Non-Nee,,50.861010025656,4.354792146177
15872.0,Appareil fixe-Vast apparaat,Bouleard Simon Bolivar,36.0,1000.0,Bruxelles ,Bruxelles-Brussel,Reception,Oui-Ja,Oui-Ja,,50.861010025656,4.354792146177
15873.0,Appareil fixe-Vast apparaat,Bouleard Simon Bolivar,36.0,1000.0,bruxelles,Bruxelles-Brussel,Locale médical ,Oui-Ja,Non-Nee,,50.861010025656,4.354792146177
15874.0,Appareil fixe-Vast apparaat,Bouleard Simon Bolivar,36.0,1000.0,Bruxelles,Bruxelles-Brussel,6 étage,Oui-Ja,Non-Nee,,50.861010025656,4.354792146177
15875.0,Appareil fixe-Vast apparaat,Bouleard Simon Bolivar,36.0,1000.0,Bruxelles ,Bruxelles-Brussel,1 étage,Oui-Ja,Non-Nee,,50.861010025656,4.354792146177
15876.0,Appareil fixe-Vast apparaat,Bouleard Simon Bolivar,36.0,1000.0,Bruxelles,Bruxelles-Brussel,4 étage,Oui-Ja,Non-Nee,,50.861010025656,4.354792146177
15877.0,Appareil fixe-Vast apparaat,Vaartkant Rechts,,2960.0,Brecht,Antwerpen,Binnenkomst via zwarte poort -> ga naar de laatste sectionale poort van het magazijn aan de rechterzijde -> AED onder de trap,Non-Nee,Non-Nee,,51.337243530034,4.71291899062
15878.0,Appareil fixe-Vast apparaat,Lindestraat,30.0,9790.0,Wortegem-Petegem,Oost-Vlaanderen,Bevestiging op de voorgevel van GBS De Kouter,Oui-Ja,Oui-Ja,,50.836703638004,3.556242950054
15879.0,Appareil fixe-Vast apparaat,Lindestaat ,16.0,9790.0,Wortegem-Petegem,Oost-Vlaanderen,Aan de zijgevel van schoolgebouw VBS  t Hinkelpad,Oui-Ja,Oui-Ja,,50.84835061,3.527601284
15880.0,Appareil fixe-Vast apparaat,Van Immerseelstraat,66.0,2000.0,Anvers,Antwerpen,3 étage ,Oui-Ja,Non-Nee,,51.21115543936,4.422743061754
15881.0,Appareil fixe-Vast apparaat,Van Immerseelstraat,66.0,2000.0,anvers ,Antwerpen,10 étage ,Oui-Ja,Oui-Ja,,51.21115543936,4.422743061754
15882.0,Appareil fixe-Vast apparaat,Van Immerseelstraat,66.0,2000.0,Anvers,Antwerpen,9 étage ,Oui-Ja,Non-Nee,,51.21115543936,4.422743061754
15883.0,Appareil fixe-Vast apparaat,Van Immerseelstraat,66.0,2000.0,Anvers,Antwerpen,8 étage ,Oui-Ja,Non-Nee,,51.21115543936,4.422743061754
15884.0,Appareil fixe-Vast apparaat,Van Immerseelstraat,66.0,2000.0,Anvers ,Antwerpen,7 étage ,Oui-Ja,Non-Nee,,51.21115543936,4.422743061754
15885.0,Appareil fixe-Vast apparaat,Van Immerseelstraat,66.0,2000.0,Anvers,Antwerpen,6 étage ,Oui-Ja,Non-Nee,,51.21115543936,4.422743061754
15877.0,Appareil fixe-Vast apparaat,Van Immerseelstraat,66.0,2000.0,Anvers,Antwerpen,reception ,Oui-Ja,Non-Nee,,51.21115543936,4.422743061754
15886.0,Appareil fixe-Vast apparaat,Van Immerseelstraat,66.0,2000.0,anvers,Antwerpen,5 étage ,Oui-Ja,Non-Nee,,51.21115543936,4.422743061754
15878.0,Appareil fixe-Vast apparaat,Van Immerseelstraat,66.0,2000.0,Anvers ,Antwerpen,4 étage ,Oui-Ja,Non-Nee,,51.21115543936,4.422743061754
15879.0,Appareil fixe-Vast apparaat,Van Immerseelstraat,66.0,2000.0,Anvers,Antwerpen,2 étage ,Oui-Ja,Non-Nee,,51.21115543936,4.422743061754
15880.0,Appareil fixe-Vast apparaat,Van Immerseelstraat,66.0,2000.0,Anvers,Antwerpen,1 étage ,Oui-Ja,Non-Nee,,51.21115543936,4.422743061754
15881.0,Appareil fixe-Vast apparaat,Rozenhof ,126.0,9790.0,Wortegem-Petegem,Oost-Vlaanderen,Bevestiging op de voorgevel van OC Rozenhof,Oui-Ja,Oui-Ja,,50.834078761206,3.560237010736
15882.0,Appareil fixe-Vast apparaat,Moregemplein,28.0,9790.0,Wortegem-Petegem,Oost-Vlaanderen,Bevestiging aan de zijgevel van Schoolke Moregem.,Oui-Ja,Oui-Ja,,50.849395851069,3.55992419811
15883.0,Appareil fixe-Vast apparaat,Waregemseweg ,35.0,9790.0,Wortegem-Petegem,Oost-Vlaanderen,Aan de buitengevel ter hoogte van het openbaar toilet,Oui-Ja,Oui-Ja,,50.854434338796,3.50539413444
1501.0,Appareil fixe-Vast apparaat,Chaussée de Lille,,7501.0,Orcq,Hainaut,Accueil ,Oui-Ja,Non-Nee,,50.603659502523,3.346205233996
15884.0,Appareil fixe-Vast apparaat,Ooikeplein ,10.0,9790.0,Wortegem-Petegem,Oost-Vlaanderen,Op de voorgevel van het gebouw,Oui-Ja,Oui-Ja,,50.87061099283,3.551193104848
15885.0,Appareil fixe-Vast apparaat,Esplanade Oscar Van De Voorde,1.0,9000.0,Gant ,Vlaams-Brabant,2 étage ,Oui-Ja,Non-Nee,,51.037409776373,3.70684211315
15886.0,Appareil fixe-Vast apparaat,Gotstraat ,,9790.0,Wortegem-Petegem,Oost-Vlaanderen,Op de zijgevel van het lijkhuisje (kerkhof Wortegem),Oui-Ja,Oui-Ja,,50.850317522888,3.500171219292
15887.0,Appareil fixe-Vast apparaat,Esplanade Oscar Van De Voorde,1.0,9000.0,Gand ,Vlaams-Brabant,3 étage ,Oui-Ja,Non-Nee,,51.037409776373,3.70684211315
15888.0,Appareil fixe-Vast apparaat,Esplanade Oscar Van De Voorde,1.0,9000.0,Gand,Vlaams-Brabant,1 étage ,Oui-Ja,Non-Nee,,51.037409776373,3.70684211315
15889.0,Appareil fixe-Vast apparaat,Schoolstraat,,9950.0,Livegem,Vlaams-Brabant, ,Oui-Ja,Non-Nee,,51.15279043161,3.603369835501
15890.0,Appareil fixe-Vast apparaat,Grokt Markt,1.0,3290.0,Diest ,Vlaams-Brabant, ,Oui-Ja,Non-Nee,,51.001839577687,4.988038728474
15891.0,Appareil fixe-Vast apparaat,Thor park,8300.0,3600.0,Genk,Limburg,JLG 1e verdiep,Non-Nee,Oui-Ja,,50.994026931466,5.538179076062
15893.0,Appareil fixe-Vast apparaat,Rue d Abhooz,3.0,4040.0,herstal,Liège,,Oui-Ja,Non-Nee,,50.693970920123,5.6200083008
15894.0,Appareil fixe-Vast apparaat,rue du fort,131.0,4632.0,Cerexhe-Heuseux,Liège, ,Oui-Ja,Non-Nee,,50.646173147259,5.715634817549
15895.0,Appareil fixe-Vast apparaat,Cour lemaire,20.0,4651.0,Battice,Liège,,Oui-Ja,Non-Nee,,50.651599259188,5.793301949473
15896.0,Appareil fixe-Vast apparaat,Rue des Fauldeurs,6.0,6530.0,Thuin,Hainaut,"Rez de chaussé, juste à l entrée",Oui-Ja,Oui-Ja,,50.35753038999,4.28696492836
15898.0,Appareil fixe-Vast apparaat,Wandelingstraat,74.0,2570.0,Duffel,Antwerpen,"aan café Den Blauwe Hoek, hangt in een groene kast met logo AED erboven",Oui-Ja,Oui-Ja,,51.098393276845,4.564292703087
15105.0,Appareil fixe-Vast apparaat,Maloulaan,2.0,8900.0,Ieper,West-Vlaanderen,Aan de buitenmuur naast de hoofdingang van het Lyceum,Oui-Ja,Oui-Ja,,50.849663862423,2.877885719239
15899.0,Appareil fixe-Vast apparaat,Oudenburgsesteenweg,101.0,8400.0,Oostende,West-Vlaanderen,Inkomhal,Non-Nee,Non-Nee,,51.215804503865,2.975874274492
15308.0,Appareil fixe-Vast apparaat,L. Hendrickxlei ,,2150.0,Borsbeek,Antwerpen,muur aan leerlingeningang van Sint-Jozefsinstituut te Borsbeek,Oui-Ja,Oui-Ja,,51.191054964231,4.48697233307
15900.0,Appareil fixe-Vast apparaat,Koning Albertlaan,264.0,3620.0,Lanaken,Limburg,Direct bij de hoofdingang van het Eurotel ,Oui-Ja,Non-Nee,08:00-00:00,50.895899990991,5.671405068446
15901.0,Appareil fixe-Vast apparaat,Egide Walschaertsstraat,7.0,2800.0,Mechelen,Antwerpen,Productievloer naast het EHBO lokaal (vervangt tostel X12H564213 met registratie nr. 3311),Non-Nee,Oui-Ja,,51.004741769752,4.465158341669
15902.0,Appareil fixe-Vast apparaat,Sparhoekdreef,63.0,9880.0,Aalter,Oost-Vlaanderen,aan de ingang van de kantine,Oui-Ja,Oui-Ja,,51.090349122458,3.371588868728
15903.0,Appareil fixe-Vast apparaat,Prinsengoeddreef,33.0,9910.0,Aalter,Oost-Vlaanderen,ingang voetbalkantine,Oui-Ja,Oui-Ja,,51.145490771693,3.403299787735
15905.0,Appareil fixe-Vast apparaat,Breestraat ,1.0,9880.0,Aalter,Oost-Vlaanderen,aan de muur van de kleedkamer scheidsrechters  - spelerstoegang eerste terrein,Oui-Ja,Oui-Ja,,51.047555106248,3.45571886909
15906.0,Appareil fixe-Vast apparaat,Joseph Gérardstraat ,16.0,9040.0,Sint-Amandsberg,Oost-Vlaanderen,gelijkvloers aan de buitenmuur van blok C naast de oprit richting de sportterreinen en de speeltuin van de lagere school,Non-Nee,Oui-Ja,,51.061518099653,3.747473304974
15907.0,Appareil fixe-Vast apparaat,Begijnhof ,,3090.0,Overijse,Vlaams-Brabant,Gevel inkom business seats,Oui-Ja,Oui-Ja,,50.769828189145,4.535659491657
15908.0,Appareil fixe-Vast apparaat,Waversesteenweg ,2.0,3090.0,Overijse,Vlaams-Brabant,Gevel bezoekerscentrum Druif,Oui-Ja,Oui-Ja,,50.772499936061,4.537303393957
15909.0,Appareil fixe-Vast apparaat,Avenue des Villas,3.0,4180.0,Hamoir,Liège,Usine de production ,Oui-Ja,Non-Nee,,50.429889141989,5.534688598459
15910.0,Appareil fixe-Vast apparaat,Avenue des Villas,3.0,4180.0,Hamoir,Liège,Usine de production ,Oui-Ja,Non-Nee,,50.429889141989,5.534688598459
15911.0,Appareil fixe-Vast apparaat,Rue Arthur Maes,100.0,1130.0,Bruxelles (Haren),Bruxelles-Brussel,au rez-de-chaussée du magasin BigMat Haren,Oui-Ja,Non-Nee,ETE : du lundi au vendredi de 06h30 à 18h00 et le samedi de 07h00 à 15h00 - HIVER : du lundi au vendredi de 06h30 à 17h00 et le samedi de 07h00 à 15h00,50.885110134671,4.425568517496
15912.0,Appareil fixe-Vast apparaat,Europalaan,32.0,2480.0,Dessel,Antwerpen,Hoofdingang van het gebouw,Non-Nee,Non-Nee,8-17h (tijdens diensturen van de fabriek),51.221887718096,5.077405746468
15913.0,Appareil fixe-Vast apparaat,Posthofbrug,,2600.0,Berchem,Antwerpen,Verdiep 2; receptie Cegeka,Non-Nee,Non-Nee,08:30 - 17:00,51.195364099382,4.433893934281
10902.0,Appareil fixe-Vast apparaat,Sluisweg,2.0,9000.0,Gent,Oost-Vlaanderen,Verdiep 4; receptie Cegeka,Non-Nee,Non-Nee,08:30 - 17:00,51.013335106435,3.736394608271
15866.0,Appareil fixe-Vast apparaat,Boulevard de Merckem,60.0,5000.0,Namur,Namur,4éme étage,Oui-Ja,Non-Nee,,50.469792406293,4.858106069666
15867.0,Appareil fixe-Vast apparaat,Industrielaan,70.0,2900.0,Schoten,Antwerpen,Gelijkvloers. Ingang hal naar receptie. Vlak achter buitendeur rechts bij het binnenkomen tegen de muur.,Non-Nee,Non-Nee,Van zondagmiddag 12h00 tot en met zaterdag 06h00,51.238753526117,4.476976992785
4195.0,Appareil fixe-Vast apparaat,Borsbeeksebrug,26.0,2600.0,Berchem,Antwerpen,Eerste verdieping aan onthaal,Non-Nee,Non-Nee,Maandag tem donderdag: 08u30-16u00 en vrijdag: 08u30-12u00,51.199418386072,4.435071835497
13303.0,Appareil fixe-Vast apparaat,Noorderlaan,500.0,2030.0,ANTWERPEN,Antwerpen,Inkom politie cellen poort 49,Oui-Ja,Oui-Ja,,51.262248126446,4.421901183399
6114.0,Appareil fixe-Vast apparaat,Universiteitslaan,9.0,3500.0,Hasselt,Limburg,Onthaal C-gebouw (scheve blok),Non-Nee,Non-Nee,08:30 - 17:00,50.929716402166,5.367065204944
10878.0,Appareil fixe-Vast apparaat,Bredabaan,399.0,2170.0,MERKSEM,Antwerpen,INKOM,Oui-Ja,Oui-Ja,,51.243404769918,4.443401519416
10879.0,Appareil fixe-Vast apparaat,Halewijnlaan,84.0,2050.0,ANTWERPEN,Antwerpen,INKOM,Oui-Ja,Oui-Ja,,51.224419130583,4.377694020224
10880.0,Appareil fixe-Vast apparaat,Sint- bernardsesteenweg,111.0,2020.0,ANTWERPEN,Antwerpen,INKOM,Oui-Ja,Oui-Ja,,51.191001278903,4.379771391107
10881.0,Appareil fixe-Vast apparaat,Kioskplaats,29.0,2660.0,HOBOKEN,Antwerpen,INKOM,Oui-Ja,Oui-Ja,,51.174893440294,4.350178159936
10882.0,Appareil fixe-Vast apparaat,Doorstraald,2.0,2610.0,WILRIJK,Antwerpen,INKOM,Oui-Ja,Oui-Ja,,51.16734,4.39513
10883.0,Appareil fixe-Vast apparaat,Unolaan,2.0,2100.0,DEURNE,Antwerpen,INKOM,Oui-Ja,Oui-Ja,,51.21826874149,4.45806314445
10885.0,Appareil fixe-Vast apparaat,Borsbeeksebrug,28.0,2600.0,BERCHEM,Antwerpen,1 e verdieping,Oui-Ja,Oui-Ja,,51.199096353352,4.434902688691
10884.0,Appareil fixe-Vast apparaat,Borsbeeksebrug,38.0,2600.0,BERCHEM,Antwerpen,INKOM,Oui-Ja,Oui-Ja,,51.200745911897,4.434724824706
10886.0,Appareil fixe-Vast apparaat,Handelstaal,101.0,2060.0,ANTWERPEN,Antwerpen,INKOM,Oui-Ja,,,51.260721048,4.369583724
6115.0,Appareil fixe-Vast apparaat,Universiteitslaan,9.0,3500.0,Hasselt,Limburg,Refter - Gebouw A,Non-Nee,Non-Nee,08:30 - 17:00,50.929716402166,5.367065204944
10887.0,Appareil fixe-Vast apparaat,Turnhoutsebaan,350.0,2140.0,BORGERHOUT,Antwerpen,INKOM,Oui-Ja,Oui-Ja,,51.214213367186,4.442844793407
10888.0,Appareil fixe-Vast apparaat,Antwerpsebaan,142.0,2040.0,ANTWERPEN,Antwerpen,INKOM,Oui-Ja,,,51.344276490316,4.321449270622
10889.0,Appareil fixe-Vast apparaat,Havanastraat,500.0,2030.0,ANTWERPEN,Antwerpen,/,Oui-Ja,Oui-Ja,,51.260767407978,4.421212331965
10890.0,Appareil fixe-Vast apparaat,Kristus-Koningsplein,15.0,2180.0,EKEREN,Antwerpen,INKOM,Oui-Ja,Oui-Ja,,51.278220806866,4.419654833348
6116.0,Appareil fixe-Vast apparaat,Universiteitslaan,9.0,3500.0,Hasselt,Limburg,Onthaal - Gebouw C,Non-Nee,Non-Nee,08:30 - 17:00,50.929716402166,5.367065204944
7716.0,Appareil fixe-Vast apparaat,Beenhouwerstraat ,3.0,2870.0,Puurs-Sint-Amands ,Antwerpen,Gemeenschapscentrum Paepenheide - Linkerkant ingang ,Oui-Ja,Oui-Ja,,51.043138220461,4.324986349943
2086.0,Appareil fixe-Vast apparaat,Harmoniepad ,0.0,2870.0,Puurs-Sint-Amands ,Antwerpen,Harmoniepad - tussen ingang Sport- en Evenementenhal Binder (Forum 4) en CC Binder (Forum 9) ,Oui-Ja,Oui-Ja,,51.075168156172,4.27459427284
2085.0,Appareil fixe-Vast apparaat,Vrijhalsweg ,15.0,2870.0,Puurs-Sint-Amands ,Antwerpen,buitenkast ingang Sporthal,Oui-Ja,Oui-Ja,,51.048169960756,4.327236136574
4888.0,Appareil fixe-Vast apparaat,Kalfortdorp,,2870.0,Puurs-Sint-Amands,Antwerpen,nabij kerk Kalfort,Oui-Ja,Oui-Ja,,51.073350447566,4.29584961243
3328.0,Appareil fixe-Vast apparaat,Turkenhofdreef,8.0,2870.0,Puurs-Sint-Amands,Antwerpen,sporthal De Wandeling,Oui-Ja,Oui-Ja,,51.060439390624,4.278716819491
15869.0,Appareil fixe-Vast apparaat,Achterhoefweg ,37.0,2870.0,Puurs-Sint-Amands,Antwerpen,Flegado ,Oui-Ja,Oui-Ja,,51.081614592616,4.328718979065
15870.0,Appareil fixe-Vast apparaat,Hoogstraat ,29.0,2870.0,Puurs-Sint-Amands,Antwerpen,Ingang Gemeentehuis,Oui-Ja,Oui-Ja,,51.076378082426,4.278270818423
3327.0,Appareil fixe-Vast apparaat,Kerkstraat,34.0,2870.0,Puurs-Sint-Amands,Antwerpen,Links van hoofdingang - aan gevel fietsenstalling,Oui-Ja,Oui-Ja,,51.085955412633,4.327493041906
15871.0,Appareil fixe-Vast apparaat,kaai ,31.0,2870.0,Puurs-Sint-Amands,Antwerpen,infopunt - glazen huis,Oui-Ja,Oui-Ja,,51.05590100915,4.201316313912
8483.0,Appareil fixe-Vast apparaat,Buisstraat ,,2870.0,Puurs-Sint-Amands,Antwerpen,rechts van hoofdinkom Gemeenschapscentrum De Nestel,Oui-Ja,Oui-Ja,,51.052968248891,4.215656618598
15872.0,Appareil fixe-Vast apparaat,Sportlaan,7.0,2870.0,Puurs-Sint-Amands,Antwerpen,ter hoogte van inkom sporthal,Oui-Ja,Oui-Ja,,51.049572085519,4.201610099618
7884.0,Appareil fixe-Vast apparaat,Lippelodorp,,2870.0,Puurs-Sint-Amands,Antwerpen,voorgevel - zichtbaar vanaf parking ,Oui-Ja,Oui-Ja,,51.043411454694,4.261218485367
7885.0,Appareil fixe-Vast apparaat,Meirstraat,27.0,2870.0,Puurs-Sint-Amands,Antwerpen,voetbalgebouw,Oui-Ja,Oui-Ja,,51.067238958118,4.244821660335
15873.0,Appareil fixe-Vast apparaat,Fortbaan,10.0,2870.0,Puurs-Sint-Amands ,Antwerpen,infoluifel nabij parking (links van Broox-restaurant),Oui-Ja,Oui-Ja,,51.067692963946,4.285094108191
12047.0,Appareil fixe-Vast apparaat,Lichterstraat,58.0,2870.0,Puurs-Sint-Amands,Antwerpen,infoluifel centraal - zichtbaar vanaf parking (rechts van Move Passion en vlak voor de Tennishal Stepp),Oui-Ja,Oui-Ja,,51.061593746329,4.31115562297
15874.0,Appareil fixe-Vast apparaat,Noorderplaats,7.0,2000.0,Anvers ,Antwerpen, ,Oui-Ja,Non-Nee,,51.230269824728,4.412593834294
15875.0,Appareil fixe-Vast apparaat,Rue d Esquernes,5.0,7603.0,Bon Secours,Hainaut,Couloir direction ,Oui-Ja,Non-Nee,,50.498907366069,3.607115402635
15875.0,Appareil fixe-Vast apparaat,Digue de Cuesmes,31.0,7000.0,Mons,Hainaut,Bureau Acceuil,Oui-Ja,Non-Nee,,50.444974997881,3.945226145596
15876.0,Appareil fixe-Vast apparaat,Coolhemstraat,64.0,2870.0,Puurs-Sint-Amands,Antwerpen,Hof van Coolhm/Coolhembos - poortgebouw nabij brasserie ,Oui-Ja,Oui-Ja,,51.074078884476,4.307568922782
15877.0,Appareil fixe-Vast apparaat,Smalle Heerweg,31.0,9041.0,OOSTAKKER,Oost-Vlaanderen,"Gebouw BTJ, in de inkom.",Oui-Ja,Oui-Ja,,51.087525720283,3.785079803218
15878.0,Appareil fixe-Vast apparaat,Smalleheerweg,31.0,9041.0,OOSTAKKER,Oost-Vlaanderen,"Volvo SML: Office 1, in de centrale gang",Oui-Ja,,,51.087525720283,3.785079803218
15879.0,Appareil fixe-Vast apparaat,Smalleheerweg,31.0,9041.0,OOSTAKKER,Oost-Vlaanderen,"Volvo SML,Office 11",Oui-Ja,,,51.087525720283,3.785079803218
15880.0,Appareil fixe-Vast apparaat,Smalleheerweg,31.0,9041.0,OOSTAKKER,Oost-Vlaanderen,"Gebouw BTA,Medische dienst, in de centrale gang.",Oui-Ja,,,51.087525720283,3.785079803218
15881.0,Appareil fixe-Vast apparaat,Smalleheerweg,31.0,9041.0,OOSTAKKER,Oost-Vlaanderen,MOBIEL TOESTEL - IN DE BRANDWEERWAGEN,Oui-Ja,,,51.087525720283,3.785079803218
15882.0,Appareil fixe-Vast apparaat,Smalleheerweg,31.0,9041.0,OOSTAKKER,Oost-Vlaanderen,"Gebouw BTQ, CABTRIM",Oui-Ja,,,51.087525720283,3.785079803218
15883.0,Appareil fixe-Vast apparaat,Bunderbeeklaan,29.0,2950.0,KAPELLEN,Antwerpen, In de keuken.  (Vooraf Inge bellen 03/6646302),Oui-Ja,Oui-Ja,,51.309862281806,4.44268612398
15884.0,Appareil fixe-Vast apparaat,Bergen,18.0,2270.0,HERENTHOUT,Antwerpen,Inkom Tennishal . (Open vanaf 13u),Oui-Ja,,,51.150418534479,4.787242442736
15885.0,Appareil fixe-Vast apparaat,Lodewijk De Konincklaan ,,2320.0,HOOGSTRATEN,Antwerpen,Inkom,Oui-Ja,,,51.39228637572,4.755403472631
15886.0,Appareil fixe-Vast apparaat,Lichterstraat,64.0,2870.0,Puurs-Sinr-Amands ,Antwerpen,buitenzijde ticketlokaal voetbalgebouw ,Oui-Ja,Oui-Ja,,51.061417391087,4.306855455184
15887.0,Appareil fixe-Vast apparaat,Uilenbaan,200.0,2160.0,WOMMELGEM,Antwerpen,WERKPLAATS,Oui-Ja,,,51.213360885723,4.525842566288
15889.0,Appareil fixe-Vast apparaat,Wijgmaalsesteenweg,32.0,3020.0,HERENT,Vlaams-Brabant,Inkom magazijn,Oui-Ja,,,50.911560990341,4.676742304432
15890.0,Appareil fixe-Vast apparaat,Beekstraat,25.0,3070.0,KORTENBERG,Vlaams-Brabant,Buitenkast inkom,Oui-Ja,,,50.884804027567,4.542478967711
15891.0,Appareil fixe-Vast apparaat,Kwikstraat,33.0,3078.0,EVERBERG,Vlaams-Brabant,Inkom voetbalplein,Oui-Ja,,,50.878268867209,4.577240815655
15892.0,Appareil fixe-Vast apparaat,Molenstraat,2.0,9988.0,WATERVLIET,Oost-Vlaanderen,"Buitengevel Bistro.  Open vanaf 11u,Wo/Do gesloten ",Oui-Ja,,,51.276570619678,3.627450067376
15893.0,Appareil fixe-Vast apparaat,Triphon De Smetstraat,5.0,9140.0,TEMSE,Oost-Vlaanderen,INKOM,Oui-Ja,,,51.127685010958,4.233362425227
15894.0,Appareil fixe-Vast apparaat,Italienlei ,,2000.0,ANTWERPEN,Antwerpen,Inkom Er is prive parking,Oui-Ja,,,51.221904629393,4.416475019589
15895.0,Appareil fixe-Vast apparaat,Interleuvenlaan,74.0,3000.0,LEUVEN,Vlaams-Brabant,Inkom,Oui-Ja,,,50.851033884497,4.732046855954
15896.0,Appareil fixe-Vast apparaat,Interleuvenlaan,74.0,3000.0,LEUVEN,Vlaams-Brabant,Achterkant Gebouw Inkom,Oui-Ja,,,50.851033884497,4.732046855954
15897.0,Appareil fixe-Vast apparaat,Heikensstraat,,9240.0,ZELE,Oost-Vlaanderen,Gebouw BPC2 in de loods.,Oui-Ja,,,51.070273825698,4.053841668503
15898.0,Appareil fixe-Vast apparaat,Vasco Da Gamalaan,1.0,9042.0,DESTELDONK,Oost-Vlaanderen,Ingang Logistiek,Oui-Ja,,,51.151058283239,3.774965695932
15899.0,Appareil fixe-Vast apparaat,Stijn Streuvelslaan,63.0,8501.0,HEULE,West-Vlaanderen,/,Oui-Ja,,,50.840985030327,3.236797304469
15900.0,Appareil fixe-Vast apparaat,Izegemsestraat,131.0,8501.0,HEULE,West-Vlaanderen,"Buitengevel,naast inkom.",Oui-Ja,,,50.839817808401,3.256902975616
15901.0,Appareil fixe-Vast apparaat,Lotelingstraat,,2812.0,MUIZEN,Antwerpen,Inkom Kleedkamers,Oui-Ja,,,51.006499768474,4.507513393793
13442.0,Appareil fixe-Vast apparaat,Westvaartdijk,83.0,1850.0,GRIMBERGEN,Vlaams-Brabant,/,Oui-Ja,,,50.938806408522,4.413314929424
15902.0,Appareil fixe-Vast apparaat,Doornzeledries,57.0,9940.0,EVERGEM,Oost-Vlaanderen,"Buitengevel,inkom",Oui-Ja,,,51.142782662596,3.76300304372
15903.0,Appareil fixe-Vast apparaat,Kanaalstraat ,,9940.0,EVERGEM,Oost-Vlaanderen,"Buitengevel,naast inkom kerk.",Oui-Ja,,,51.17418378728,3.782747709162
15904.0,Appareil fixe-Vast apparaat,Nieuwpoortsesteenweg,70.0,8400.0,OOSTENDE,West-Vlaanderen,/,Oui-Ja,,,51.223232756007,2.90576133081
11659.0,Appareil fixe-Vast apparaat,Rijselstraat,1.0,8000.0,BRUGGE,West-Vlaanderen,"Gebouw BST1, onthaal.",Oui-Ja,,,51.194921061739,3.214648958731
15905.0,Appareil fixe-Vast apparaat,Moerenlei,121.0,2610.0,WILRIJK,Antwerpen,Inkom bar,Oui-Ja,,,51.161362450179,4.372487936342
15906.0,Appareil fixe-Vast apparaat,Clos Des Chausseurs,2.0,1150.0,SINT-PIETERS-WOLUWE,Bruxelles-Brussel,Inkom Receptie,Oui-Ja,,,50.824912395712,4.455956436906
15907.0,Appareil fixe-Vast apparaat,Birminghamstraat,62.0,1080.0,SINT-JANS-MOLENBEEK,Bruxelles-Brussel,Inkom Magazijn,Oui-Ja,,,50.847299159899,4.326006176102
15908.0,Appareil fixe-Vast apparaat,Avenue de la Reine,1.0,1310.0,LA HULPE,Brabant Wallon,EHBO LOKAAL,Oui-Ja,,,50.74473773164,4.491027157982
15909.0,Appareil fixe-Vast apparaat,Antwerpsesteenweg,415.0,2500.0,LIER,Antwerpen,INKOM,Oui-Ja,,,51.144417217534,4.543565178543
15910.0,Appareil fixe-Vast apparaat,Edingsesteenweg,262.0,1755.0,KESTER,Vlaams-Brabant,/,Oui-Ja,,,50.773687903198,4.117713954355
11660.0,Appareil fixe-Vast apparaat,marksesteenweg,58.0,8500.0,KORTRIJK,West-Vlaanderen,inkom gebouw c,Oui-Ja,,,50.821939795661,3.250505907112
15911.0,Appareil fixe-Vast apparaat,Vinkenstraat,50.0,1850.0,GRIMBERGEN,Vlaams-Brabant,/,Oui-Ja,,,50.927516865045,4.397693408838
15912.0,Appareil fixe-Vast apparaat,Sint-Jorisstraat,,8730.0,BEERNEM,West-Vlaanderen,Buitenzuil op de parking.,Oui-Ja,,,51.12660549776,3.343881876767
15913.0,Appareil fixe-Vast apparaat,Clemence Dosschestraat,5.0,9800.0,ASTENE,Oost-Vlaanderen,magazijn ( werkplaats,Oui-Ja,,,50.987673951773,3.515450909508
15914.0,Appareil fixe-Vast apparaat,Avenue Mélina Mercouri,7.0,7000.0,Mons,Hainaut,"Dans le lobby de l hôtel, à côté de l hydrant. ",Oui-Ja,Oui-Ja,,50.456178016242,3.940642477917
15915.0,Appareil fixe-Vast apparaat,Chaussée de bruxelles ,134.0,1410.0,Waterloo ,Brabant Wallon,,Oui-Ja,Non-Nee,,50.723568103613,4.397805055789
15916.0,Appareil fixe-Vast apparaat,Rozenstraat,,9810.0,EKE,Oost-Vlaanderen,Tankstation Lubolux,Oui-Ja,,,50.975506528456,3.654348772311
15917.0,Appareil fixe-Vast apparaat,Victor Braeckmanlaan,180.0,9000.0,GENT,Oost-Vlaanderen,vervangt site 1,Oui-Ja,,,51.059633093448,3.760401049517
11959.0,Appareil fixe-Vast apparaat,Opaaigem,26.0,9420.0,AAIGEM,Oost-Vlaanderen,Inkom Winkel,Oui-Ja,Oui-Ja,,50.892929193048,3.936092361778
15918.0,Appareil fixe-Vast apparaat,Elenestraat,75.0,9620.0,ZOTTEGEM,Oost-Vlaanderen,Buitenkast Inkom,Oui-Ja,,,50.879769940339,3.809060512022
15919.0,Appareil fixe-Vast apparaat,Oude vest,114.0,9200.0,APPELS,Oost-Vlaanderen,Inkom,Oui-Ja,,,51.030100379619,4.103601427797
15920.0,Appareil fixe-Vast apparaat,De Castrodreef,1.0,9100.0,SINT-NIKLAAS,Oost-Vlaanderen,Inkom logistiek raadzaal,Oui-Ja,,,51.162477662397,4.138884043386
15921.0,Appareil fixe-Vast apparaat,Sint-Truidersteenweg,301.0,3840.0,Hoepertingen (Borgloon),Limburg,Gelijkvloers - voorkant productielijn 3,Non-Nee,Non-Nee,Maandag tot vrijdag,50.805814926284,5.300700723295
15922.0,Appareil fixe-Vast apparaat,Steenweg op vilvoorde,40.0,1745.0,MAZENZELE,Vlaams-Brabant,Buitenkast inkom voetbal cantine,Oui-Ja,Oui-Ja,,50.960267936327,4.200072355662
15923.0,Appareil fixe-Vast apparaat,boulevard Louis Schmidt,29.0,1040.0,ETTERBEEK,Bruxelles-Brussel,Binnen in kantoren van UBER ,Oui-Ja,,,50.827017510695,4.399407424219
15924.0,Appareil fixe-Vast apparaat,Sint-Truidersteenweg ,301.0,3840.0,Hoepertingen (Borgloon),Limburg,Gelijkvloers - oude receptie,Non-Nee,Non-Nee,Maandag - vrijdag,50.805814926284,5.300700723295
15925.0,Appareil fixe-Vast apparaat,Industrielaan,32.0,8930.0,MENEN,West-Vlaanderen,in de gang Burelen V1,Oui-Ja,,,50.788903949218,3.099854776217
15926.0,Appareil fixe-Vast apparaat,Industrielaan,32.0,8930.0,MENEN,West-Vlaanderen,in de gang van de burelen V5,Oui-Ja,,,50.788903949218,3.099854776217
15927.0,Appareil fixe-Vast apparaat,industrielaan,,8930.0,MENEN,West-Vlaanderen,bureel naast weegbrug,Oui-Ja,,,50.78899201574,3.099516942954
15928.0,Appareil fixe-Vast apparaat,RUE SAINTE LOUISE,82.0,7301.0,HORNU,Hainaut,ACCUEIL GRAND-HORNU,Oui-Ja,Non-Nee,10H00 - 18H00 SAUF LUNDIS,50.434646289998,3.837842207326
15929.0,Appareil fixe-Vast apparaat,industrielaan,85.0,8930.0,MENEN,West-Vlaanderen,Werkplaats naast bureel ,Oui-Ja,,,50.788917444082,3.09844167116
15930.0,Appareil fixe-Vast apparaat,Industrielaan,3.0,8930.0,MENEN,West-Vlaanderen,aan het onthaal,Oui-Ja,,,50.791702708598,3.10416642721
15931.0,Appareil fixe-Vast apparaat,Wolvenstraat,23.0,8500.0,KORTRIJK,West-Vlaanderen,aan de receptie,Oui-Ja,,,50.816615987949,3.266286851497
15932.0,Appareil fixe-Vast apparaat,Rue des sablières,13.0,7522.0,Blandain,Hainaut,Salle de sport,Oui-Ja,Non-Nee,,50.62349150156,3.32569592157
15933.0,Appareil fixe-Vast apparaat,Gullegemstraat,59.0,8560.0,GULLEGEM,West-Vlaanderen,inkom atelier,Oui-Ja,,,50.814117929346,3.186019399756
15934.0,Appareil fixe-Vast apparaat,Esplanade Rene Magritte,7.0,6010.0,CHARLEROI,Hainaut,INKOM,Oui-Ja,,,50.393452518503,4.459533976785
15935.0,Appareil fixe-Vast apparaat,Roterijstraat,20.0,8540.0,DEERLIJK,West-Vlaanderen,ONTHAAL,Oui-Ja,,,50.849294681498,3.347556024486
15936.0,Appareil fixe-Vast apparaat,Rue des Spinettes,20.0,4140.0,Sprimont,Liège,Local dispatch,Non-Nee,Non-Nee,semaine : 6h-17h,50.515423907437,5.687910370787
15937.0,Appareil fixe-Vast apparaat,Rue du Traquet,5.0,4460.0,Bierset,Liège,Local doseur,Non-Nee,Non-Nee,semaine 6h -16h,50.637897828416,5.411906027019
15938.0,Appareil fixe-Vast apparaat,Rue des Spinettes ,13.0,4140.0,Sprimont,Liège,Magasin ELOY TRAVAUX,Non-Nee,Non-Nee,6h-15h,50.513475071878,5.683026325741
15941.0,Appareil fixe-Vast apparaat,rue des Spinettes ,13.0,4140.0,Sprimont,Liège,Accueil principal EBA,Non-Nee,Non-Nee,8h-17h,50.513475071878,5.683026325741
15942.0,Appareil fixe-Vast apparaat,Rue de la charrette,27.0,1200.0,Bruxelles,Bruxelles-Brussel,,Oui-Ja,Non-Nee,,50.850744834566,4.422024145919
15943.0,Appareil fixe-Vast apparaat,Van Maerlantstraat,1.0,8370.0,BLANKENBERGE,West-Vlaanderen,Hoofdingang School,Oui-Ja,,,51.310821171529,3.125961470942
879.0,Appareil fixe-Vast apparaat,Humbeeksesteenweg,245.0,1850.0,Grimbergen,Vlaams-Brabant,Gemeentelijke loods thv ingangsdeur ,Non-Nee,Non-Nee,8u - 16u,50.945891673186,4.39539919812
15944.0,Appareil fixe-Vast apparaat,Rue du bas sart,74.0,6280.0,Gougnies,Hainaut, ,Oui-Ja,Non-Nee,,50.373156013201,4.592198796875
15945.0,Appareil fixe-Vast apparaat,André Geryllaan,5.0,8670.0,Koksijde,West-Vlaanderen,Lijkenhuisje Kerkhof,Oui-Ja,Oui-Ja,,51.121188072078,2.695667251337
15946.0,Appareil fixe-Vast apparaat,Dorp ,86.0,9320.0,Erembodegem,Oost-Vlaanderen,Eerste verdieping kantoren BDB europe,Non-Nee,Non-Nee,07u30 - 18u,50.91905,4.05041
15947.0,Appareil fixe-Vast apparaat,Steenweg,39.0,1730.0,Asse,Vlaams-Brabant,Naast kantoor van Meliopus (nummer 39) in de nis naast de elektriciteitscabine,Oui-Ja,Oui-Ja,,50.911407517694,4.196758989336
13706.0,Appareil fixe-Vast apparaat,Voskenslaan,22.0,9100.0,Sint-Niklaas,Oost-Vlaanderen,buiten aan de ingang,Oui-Ja,Oui-Ja,,51.155176018903,4.160323359147
13707.0,Appareil fixe-Vast apparaat,Dalstraat,26.0,9100.0,Sint-Niklaas,Oost-Vlaanderen,"Binnen, aan de inkom van de publieksingang ",Oui-Ja,Oui-Ja,,51.165141221678,4.135648544941
13708.0,Appareil fixe-Vast apparaat,Vleeshouwersstraat,,9112.0,Sinaai,Oost-Vlaanderen,"Buiten, aan de inkomhal",Oui-Ja,Oui-Ja,,51.155307410946,4.049392131495
9085.0,Appareil fixe-Vast apparaat,Paul Snoeckstraat,1.0,9100.0,Sint-Niklaas,Oost-Vlaanderen,"Binnen, in de inkomhal",Non-Nee,Non-Nee,Zie de openingsuren van de Stadsschouwburg,51.166795306451,4.139048663964
15949.0,Appareil fixe-Vast apparaat,Jagershoek,14.0,8570.0,VICHTE,West-Vlaanderen,in de inkom,Oui-Ja,,,50.840185103398,3.386295504582
15950.0,Appareil fixe-Vast apparaat,Jagershoek,13.0,8570.0,VICHTE,West-Vlaanderen,ingang Magazijn,Oui-Ja,,,50.840310077574,3.387262608571
15951.0,Appareil fixe-Vast apparaat,Flanders Fieldweg,37.0,8790.0,WAREGEM,West-Vlaanderen,naast EHBO lokaal,Oui-Ja,Oui-Ja,,50.869740532185,3.450379261491
15952.0,Appareil fixe-Vast apparaat,Eugene Bekaertlaan,14.0,8790.0,WAREGEM,West-Vlaanderen,in de gang naar de refter,Oui-Ja,,,50.867741071092,3.442566489541
15953.0,Appareil fixe-Vast apparaat,Zuiderlaan,26.0,8790.0,WAREGEM,West-Vlaanderen,in het Foyer,Oui-Ja,,,50.880978862234,3.426829466329
15954.0,Appareil fixe-Vast apparaat,Kazerneweg,19.0,9770.0,KRUISHOUTEM,Oost-Vlaanderen,In de inkomhal,Oui-Ja,,,50.918356995526,3.527645321343
15955.0,Appareil fixe-Vast apparaat,Industriezone,,9770.0,KRUISHOUTEM,Oost-Vlaanderen,buitengevel aan laadstation,Oui-Ja,,,50.905329443252,3.476749857271
15956.0,Appareil fixe-Vast apparaat,Mannebeekstraat,21.0,8790.0,WAREGEM,Oost-Vlaanderen,bij personeelsingang,Oui-Ja,,,50.859452626137,3.426428392262
15957.0,Appareil fixe-Vast apparaat,Bedrijvenlaan,3.0,8630.0,VEURNE,West-Vlaanderen,Naast de burelen,Oui-Ja,Oui-Ja,,51.071767365128,2.693203977632
15958.0,Appareil fixe-Vast apparaat,Nijverheidstraat,2.0,8630.0,VEURNE,West-Vlaanderen,Inkom bureel ,Oui-Ja,,,51.065352694628,2.678060225527
15959.0,Appareil fixe-Vast apparaat,Werkplaatsstraat ,4.0,8630.0,VEURNE,West-Vlaanderen,in de refter,Oui-Ja,,,51.06581994382,2.672338319324
15960.0,Appareil fixe-Vast apparaat,Koksijdestraat,24.0,8630.0,VEURNE,West-Vlaanderen,/,Oui-Ja,,,51.083915173581,2.642216692978
15961.0,Appareil fixe-Vast apparaat,Albert I laan,17.0,8630.0,VEURNE,West-Vlaanderen,/,Oui-Ja,,,51.061673416319,2.673774977528
15962.0,Appareil fixe-Vast apparaat,Noordzeedreef,,8670.0,OOSTDUINKERKE,West-Vlaanderen,Inkom,Oui-Ja,,,51.135925271054,2.704730893465
15963.0,Appareil fixe-Vast apparaat,Kleine dries,2.0,8600.0,DIKSMUIDE,West-Vlaanderen,/,Oui-Ja,,,51.018479792875,2.853478036287
15964.0,Appareil fixe-Vast apparaat,Vaartstraat,,8630.0,VEURNE,West-Vlaanderen,werkplaats,Oui-Ja,,,51.037398602244,2.700989495563
15965.0,Appareil fixe-Vast apparaat,Bedrijvenlaan,7.0,8630.0,VEURNE,West-Vlaanderen,Loods 1 refter,Oui-Ja,,,51.072285241015,2.691369095208
15966.0,Appareil fixe-Vast apparaat,Avenue Leon Grosjean,2.0,1140.0,EVERE,Bruxelles-Brussel,In de inkomhal,Oui-Ja,,,50.857866979604,4.411962760804
15967.0,Appareil fixe-Vast apparaat,Churchillaan,14.0,8790.0,WAREGEM,West-Vlaanderen,onthaal,Oui-Ja,,,50.889844736499,3.438968641422
15968.0,Appareil fixe-Vast apparaat,Astridlaan,72.0,9500.0,GERAARDSBERGEN,Oost-Vlaanderen,inkom delhaize,Oui-Ja,,,50.774862836476,3.868820380358
15969.0,Appareil fixe-Vast apparaat,Vantegemstraat,1.0,9230.0,WETTEREN,Oost-Vlaanderen," 3de verdieping, cafetaria achter betonnen paal",Oui-Ja,,,50.976038654789,3.839915722534
7042.0,Appareil fixe-Vast apparaat,Vantegemstraat,1.0,9230.0,WETTEREN,Oost-Vlaanderen,1e verdiep EHBO lokaal,Oui-Ja,,,50.976038654789,3.839915722534
15970.0,Appareil fixe-Vast apparaat,Haven 111 steenlandlaan,3.0,9130.0,DOEL,Oost-Vlaanderen,hoofdgebouw inkom gang,Oui-Ja,,,51.259249458676,4.261227978515
15971.0,Appareil fixe-Vast apparaat,Steenovenstraat,38.0,8790.0,WAREGEM,West-Vlaanderen,werkplaats,Oui-Ja,Oui-Ja,,50.868211924503,3.449058692646
15972.0,Appareil fixe-Vast apparaat,Industrielaan,21.0,8790.0,WAREGEM,West-Vlaanderen,inkom,Oui-Ja,,,50.864504231543,3.426454711438
15973.0,Appareil fixe-Vast apparaat,Lindestraat,97.0,8790.0,WAREGEM,West-Vlaanderen,inkom,Oui-Ja,,,50.896952674211,3.406392961464
15974.0,Appareil fixe-Vast apparaat,Wielsbekestraat,96.0,8780.0,OOSTROZEBEKE,West-Vlaanderen,inkom,Oui-Ja,,,50.919535155836,3.345766404339
15975.0,Appareil fixe-Vast apparaat,Dentergemstraat,164.0,8780.0,OOSTROZEBEKE,West-Vlaanderen,inkom,Oui-Ja,,,50.937305712578,3.366012723821
15976.0,Appareil fixe-Vast apparaat,Markt,1.0,8760.0,MEULEBEKE,West-Vlaanderen,Inkom buitenkast,Oui-Ja,,,50.948939207452,3.288161523309
15977.0,Appareil fixe-Vast apparaat,Jan Baljuwvermeulenstraat,1.0,8760.0,MEULEBEKE,West-Vlaanderen,Frenesco Sporthal,Oui-Ja,Oui-Ja,,50.951094571944,3.289548393008
15978.0,Appareil fixe-Vast apparaat,Bremheidelaan,10.0,2300.0,TURNHOUT,Antwerpen,naast EHBO lokaal,Oui-Ja,,,51.292887041947,4.921025496405
15979.0,Appareil fixe-Vast apparaat,Jaagpad,2.0,8900.0,IEPER,West-Vlaanderen,Inkom werkplaats ,Oui-Ja,,,50.869292142274,2.879231014698
15980.0,Appareil fixe-Vast apparaat,Energieweg,,2390.0,MALLE,Antwerpen,in de productieruimte,Oui-Ja,,,51.293590417457,4.715718772461
15981.0,Appareil fixe-Vast apparaat,Mariastraat,10.0,2160.0,WOMMELGEM,Antwerpen,"Inkom, onmiddellijk links , cafetaria rechts naast houten trap",Oui-Ja,,,51.205458092133,4.484882971498
15982.0,Appareil fixe-Vast apparaat,Sportstraat,7.0,9820.0,MERELBEKE,Oost-Vlaanderen,Inkom Tennis,Oui-Ja,,,50.996233509386,3.742158088713
15983.0,Appareil fixe-Vast apparaat,Bruggestraat,271.0,8730.0,BEERNEM,West-Vlaanderen,INKOM,Oui-Ja,,,51.187241660053,3.288634430286
15984.0,Appareil fixe-Vast apparaat,Zuidervaartje,3.0,8310.0,ASSEBROEK,West-Vlaanderen,in kelder deur steeds open,Oui-Ja,,,51.220934521975,3.23899772169
15985.0,Appareil fixe-Vast apparaat,Emiel Clausstraat,41.0,8790.0,WAREGEM,West-Vlaanderen,/,Oui-Ja,,,50.909908372401,3.409898021915
15986.0,Appareil fixe-Vast apparaat,Langestraat,53.0,9620.0,ZOTTEGEM,Oost-Vlaanderen,Bij de uitgang,Oui-Ja,,,50.861694240413,3.840027537122
15987.0,Appareil fixe-Vast apparaat,Filliersdreef,32.0,9800.0,ASTENE,Oost-Vlaanderen,ingang magazijn,Oui-Ja,,,50.993142639281,3.539099998135
15988.0,Appareil fixe-Vast apparaat,E3 Laan,37.0,9800.0,DEINZE,Oost-Vlaanderen,In het bureel,Oui-Ja,,,51.017735401,3.53158014
15989.0,Appareil fixe-Vast apparaat,G. Deprezstraat,2.0,8530.0,HARELBEKE,West-Vlaanderen,in de refter,Oui-Ja,,,50.835977346094,3.306537756373
15990.0,Appareil fixe-Vast apparaat,Nijverheidslaan,3.0,8880.0,LEDEGEM,West-Vlaanderen,in de keuken,Oui-Ja,,,50.864404822171,3.114157655795
15991.0,Appareil fixe-Vast apparaat,Nijverheidslaan,4.0,8880.0,LEDEGEM,West-Vlaanderen,REFTER,Oui-Ja,,,50.864256967333,3.114430105751
15992.0,Appareil fixe-Vast apparaat,Engelse Wandeling,,8500.0,KORTRIJK,West-Vlaanderen,in bureel ruimte,Oui-Ja,,,50.814874413546,3.245374195182
15993.0,Appareil fixe-Vast apparaat,Brugsesteenweg,30.0,8520.0,KUURNE,West-Vlaanderen,in de werkplaats garage van mossel,Oui-Ja,,,50.846137595757,3.269546070727
15994.0,Appareil fixe-Vast apparaat,generaal deprezstraat,2.0,8530.0,HARELBEKE,West-Vlaanderen,brandweerlokaal,Oui-Ja,,,50.835977346094,3.306537756373
15995.0,Appareil fixe-Vast apparaat,Route de monti,8.0,6800.0,Bougnimont,Luxembourg,Mur de l église,Oui-Ja,Oui-Ja,,49.943992895979,5.465257272807
15996.0,Appareil fixe-Vast apparaat,Schoonboekstraat,14.0,9600.0,RONSE,Oost-Vlaanderen,In het atelier,Oui-Ja,,,50.750636789366,3.658708028336
15997.0,Appareil fixe-Vast apparaat,Steenweg ,,9810.0,EKE,Oost-Vlaanderen,inkom,Oui-Ja,,,50.968507853163,3.661225433206
15998.0,Appareil fixe-Vast apparaat,Goed ter Motestraat,1.0,8570.0,ANZEGEM,West-Vlaanderen,In restaurant,Oui-Ja,,,50.823228303726,3.431040869761
15999.0,Appareil fixe-Vast apparaat,Hoogstraat,36.0,9000.0,GENT,Oost-Vlaanderen,inkom receptie,Oui-Ja,,,51.054728464715,3.714742056893
16000.0,Appareil fixe-Vast apparaat,Armentierstraat,150.0,7782.0,PLOEGSTEERT,Hainaut,inkom winkel aan de verste kassa,Oui-Ja,,,50.714509194118,2.88487337664
16001.0,Appareil fixe-Vast apparaat,Hasseltkouter,53.0,9500.0,GERAARDSBERGEN,Oost-Vlaanderen,in de inkomhal,Oui-Ja,,,50.81898701881,3.872553260938
16002.0,Appareil fixe-Vast apparaat,Rue Camille Joset,1.0,6730.0,TINTIGNY,Luxembourg,Facade centre culturel côté parking,Oui-Ja,Oui-Ja,,49.716916661578,5.486050511471
16003.0,Appareil fixe-Vast apparaat,Rue du boulet,27.0,1000.0,BRUSSEL,Bruxelles-Brussel,Garagepoort thv trap/inkom,Oui-Ja,Oui-Ja,,50.849482268491,4.343578165557
16004.0,Appareil fixe-Vast apparaat,Geslecht 3 haven ,1931.0,9130.0,KALLO,Oost-Vlaanderen,ingang dispatching,Oui-Ja,,,51.288362149215,4.279074674798
11678.0,Appareil fixe-Vast apparaat,Tarwestraat,9.0,2200.0,HERENTALS,Antwerpen,Buitenkast inkom ,Oui-Ja,,,51.127684382316,4.830368759497
16005.0,Appareil fixe-Vast apparaat,Ballingsweg,10.0,9620.0,ZOTTEGEM,Oost-Vlaanderen,EHBO lokaal,Oui-Ja,,,50.87900802534,3.83752159953
16006.0,Appareil fixe-Vast apparaat,Rue Fleurie,2.0,6800.0,BRAS,Luxembourg,2e verdieping inkom,Oui-Ja,,,49.925467842224,5.366516274105
16007.0,Appareil fixe-Vast apparaat,Zonnekestraat,13.0,8501.0,BISSEGEM,West-Vlaanderen,Trappenhal Personeel,Oui-Ja,,,50.82566056439,3.221277121092
16008.0,Appareil fixe-Vast apparaat,Rue De La Bassee,1.0,7700.0,Luingne,Hainaut,Inkom productie,Oui-Ja,,,50.745578344192,3.258402268199
16009.0,Appareil fixe-Vast apparaat,Zwaarveld,48.0,9220.0,HAMME,Oost-Vlaanderen,Refter,Oui-Ja,,,51.071771765627,4.126574883296
16010.0,Appareil fixe-Vast apparaat,Sint-Andriesstraat,2.0,2000.0,ANTWERPEN,Antwerpen,Inkom rechts ehbo lokaal,Oui-Ja,,,51.21599192322,4.397172892651
16011.0,Appareil fixe-Vast apparaat,Blokhuisstraat ,,2800.0,MECHELEN,Antwerpen,Inkom,Oui-Ja,,,51.050339636549,4.460716811583
16012.0,Appareil fixe-Vast apparaat,Rue D Erbisoeul,5.0,7011.0,GHLIN,Hainaut,Naast de keuken,Oui-Ja,,,50.494540059238,3.909764049533
16013.0,Appareil fixe-Vast apparaat,Rue De Coquelet,134.0,5000.0,NAMUR,Namur,In de inkom/onthaal,Oui-Ja,,,50.470538730952,4.877365252412
16014.0,Appareil fixe-Vast apparaat,Rue de la Pichelotte,,5340.0,GESVES,Namur,In de centrale gang,Oui-Ja,,,50.411322226841,5.059629062222
16015.0,Appareil fixe-Vast apparaat,Rue de Montigny,29.0,6000.0,CHARLEROI,Hainaut,In de inkomhall,Oui-Ja,,,50.408282019388,4.444817725776
16016.0,Appareil fixe-Vast apparaat,Place Delcour,16.0,4020.0,LUIK,Liège,Aan het onthaal,Oui-Ja,,,50.638222685381,5.581429025895
16017.0,Appareil fixe-Vast apparaat,Rue Saint Exupéry,,4460.0,Grace-Hollogne,Liège,In de gang.,Oui-Ja,,,50.646714579508,5.442748570962
16018.0,Appareil fixe-Vast apparaat,Koninginnelaan,100.0,8670.0,KOKSIJDE,West-Vlaanderen,Inkom/Balie,Oui-Ja,,,51.110960515733,2.616455248844
16019.0,Appareil fixe-Vast apparaat,Albert 1 Laan,,8670.0,OOSTDUINKERKE,West-Vlaanderen,Aan het onthaal.,Oui-Ja,,,51.133662728236,2.678407932064
16020.0,Appareil fixe-Vast apparaat,Kuringersteenweg,293.0,3500.0,HASSELT,Limburg,inkom rechts achter,Oui-Ja,,,50.938189458539,5.313960986824
16021.0,Appareil fixe-Vast apparaat,Industrieweg Zuid,2051.0,3660.0,OPGLABBEEK,Limburg,Inkom,Oui-Ja,,,51.034194562134,5.561868094635
16022.0,Appareil fixe-Vast apparaat,Schoorstraat,67.0,2275.0,GIERLE,Antwerpen,Inkom,Oui-Ja,,,51.278145746923,4.864992389858
16023.0,Appareil fixe-Vast apparaat,Hertogstraat,178.0,3001.0,HEVERLEE,Vlaams-Brabant,Toestel hangt buiten ,Oui-Ja,,,50.856114826564,4.702501317813
16024.0,Appareil fixe-Vast apparaat,Emile van Becelaerelaan,2.0,1170.0,WATERMAAL-BOSVOORDE,Bruxelles-Brussel,"Gelijkvloers,bij de goederenlift.",Oui-Ja,,,50.796008324621,4.407476766225
16025.0,Appareil fixe-Vast apparaat,Hippokrateslaan,14.0,1930.0,NOSSEGEM,Vlaams-Brabant,Aan de receptie,Oui-Ja,,,50.854579890545,4.448167637199
16026.0,Appareil fixe-Vast apparaat,Roeselaarsestraat,525.0,8870.0,IZEGEM,West-Vlaanderen,Inkom burelen,Oui-Ja,,,50.929055950106,3.179293090095
16027.0,Appareil fixe-Vast apparaat,Avenue de la Liberation,50.0,5660.0,COUVIN,Namur,In de gang naar de burelen.,Oui-Ja,,,50.05529497287,4.48770138644
16028.0,Appareil fixe-Vast apparaat,Torhoutsesteenweg,224.0,8210.0,ZEDELGEM,West-Vlaanderen,Achter de toonbank.,Oui-Ja,,,51.12197655771,3.149196190363
16029.0,Appareil fixe-Vast apparaat,Oostrozebeekstraat ,148.0,8710.0,WIELSBEKE,West-Vlaanderen,Inkom naast wc,Oui-Ja,,,50.904221963558,3.332312863009
16030.0,Appareil fixe-Vast apparaat,Oostrozebeekstraat,148.0,8710.0,WIELSBEKE,West-Vlaanderen,2e verdieping naastwc,Oui-Ja,,,50.904221963558,3.332312863009
16031.0,Appareil fixe-Vast apparaat,Oostrozebeekstraat,148.0,8710.0,WIELSBEKE,West-Vlaanderen,Diepvries 4 receptie,Oui-Ja,,,50.904221963558,3.332312863009
16032.0,Appareil fixe-Vast apparaat,Oostrozebeekstraat,148.0,8710.0,WIELSBEKE,West-Vlaanderen,Fabriek 1,Oui-Ja,Oui-Ja,,50.904221963558,3.332312863009
11960.0,Appareil fixe-Vast apparaat,Markt,1.0,8710.0,WIELSBEKE,West-Vlaanderen,Inkom kerk buitenkast,Oui-Ja,Oui-Ja,,50.908948015845,3.370410289322
16033.0,Appareil fixe-Vast apparaat,Bavikhoofsestraat,9.0,8710.0,OOIGEM,West-Vlaanderen,Buitenkast t vlinderken kinderopvang,Oui-Ja,,,50.892682890823,3.335664450813
16034.0,Appareil fixe-Vast apparaat,Avenue louise,222.0,1000.0,BRUSSEL,Bruxelles-Brussel,6e verdieping Inkom,Oui-Ja,,,50.826464933728,4.365287546239
16035.0,Appareil fixe-Vast apparaat,Oudeleeuwenrui,19.0,2000.0,ANTWERPEN,Antwerpen,/,Oui-Ja,,,51.227185410088,4.406660536493
16036.0,Appareil fixe-Vast apparaat,T hofveld,6.0,1702.0,GROOT-BIJGAARDEN,Vlaams-Brabant,Buitenkast,Oui-Ja,,,50.871393910668,4.274827506865
16037.0,Appareil fixe-Vast apparaat,Radiatorenstraat,11.0,1800.0,PEUTIE,Vlaams-Brabant,Bij de Planbalie.,Oui-Ja,,,50.936484076519,4.422301838371
16038.0,Appareil fixe-Vast apparaat,Hoogveld,90.0,9200.0,DENDERMONDE,Oost-Vlaanderen,1 verdiep gang,Oui-Ja,,,51.023216615907,4.143970098414
16039.0,Appareil fixe-Vast apparaat,Hoogveld,90.0,9200.0,DENDERMONDE,Oost-Vlaanderen,inkom productie,Oui-Ja,,,51.023216615907,4.143970098414
16040.0,Appareil fixe-Vast apparaat,Hoogveld,90.0,9200.0,DENDERMONDE,Oost-Vlaanderen,LABO,Oui-Ja,,,51.023216615907,4.143970098414
13083.0,Appareil fixe-Vast apparaat,Industriezone,32.0,9770.0,KRUISHOUTEM,Oost-Vlaanderen,in de werkplaats,Oui-Ja,,,50.9037231565,3.472818119206
16041.0,Appareil fixe-Vast apparaat,Pitantiestraat,127.0,8792.0,DESSELGEM,West-Vlaanderen,Bureau maintenance,Oui-Ja,,,50.897345575922,3.369228273336
16042.0,Appareil fixe-Vast apparaat,Staatsbaan,289.0,9870.0,ZULTE,Oost-Vlaanderen,Inkom burelen,Oui-Ja,,,50.911318837158,3.428087087082
16043.0,Appareil fixe-Vast apparaat,Gentstraat,39.0,8780.0,OOSTROZEBEKE,West-Vlaanderen,/,Oui-Ja,,,50.957620763666,3.36240381159
16044.0,Appareil fixe-Vast apparaat,Oude Zwevezeelsestraat,9.0,8851.0,KOOLSKAMP,West-Vlaanderen,INKOM,Oui-Ja,,,51.020908030225,3.200014747307
16045.0,Appareil fixe-Vast apparaat,lodewijk de raetlaan,59.0,8870.0,EMELGEM,West-Vlaanderen,Hangt in de winkel tov de wc,Oui-Ja,,,50.931775793867,3.185999031731
16046.0,Appareil fixe-Vast apparaat,Ropswalle,10.0,8930.0,LAUWE,West-Vlaanderen,Sas tss kleedkamer en refter,Oui-Ja,,,50.788981900918,3.102215706884
16047.0,Appareil fixe-Vast apparaat,Elleboogstraat,7.0,8500.0,KORTRIJK,West-Vlaanderen,Inkom rechts door poort,Oui-Ja,,,50.796277467532,3.284458398486
16048.0,Appareil fixe-Vast apparaat,Chemin de la clusure,30.0,6927.0,TELLIN,Luxembourg,sanitaire blok nt1,Oui-Ja,,,50.096381134398,5.285379870462
16049.0,Appareil fixe-Vast apparaat,Chemin de la Clusure,30.0,6927.0,TELLIN,Luxembourg,sanitaire blok 3,Oui-Ja,,,50.096381134398,5.285379870462
16050.0,Appareil fixe-Vast apparaat,Boulevard Simon Bolivar,30.0,1000.0,BRUSSEL,Bruxelles-Brussel,2 verdiep onthaal Financien,Oui-Ja,,,50.860724663763,4.35612419823
16051.0,Appareil fixe-Vast apparaat,Spinnerijstraat,99.0,8500.0,KORTRIJK,West-Vlaanderen,Cotton Park Sport Club,Oui-Ja,,,50.828612125865,3.302220573324
15215.0,Appareil fixe-Vast apparaat,Industrielaan,55.0,8930.0,LAUWE,West-Vlaanderen,"Aanmelden onthaal, AED staat in de gang van het magazijn",Oui-Ja,,,50.789270741301,3.099651850341
16052.0,Appareil fixe-Vast apparaat,Raverschootstraat,67.0,9900.0,EEKLO,Oost-Vlaanderen,Inkom,Oui-Ja,Oui-Ja,,51.18618315141,3.555332926826
16053.0,Appareil fixe-Vast apparaat,handelsstraat,6.0,8020.0,HERTSBERGE,West-Vlaanderen,inkom productie,Oui-Ja,,,51.126225889254,3.252668186674
16054.0,Appareil fixe-Vast apparaat,beerveldse baan,4.0,9120.0,LOCHRISTI,Oost-Vlaanderen,1 verdiep gang,Oui-Ja,,,51.102888784885,3.868871677606
16055.0,Appareil fixe-Vast apparaat,Oud-Strijderslaan,14.0,8000.0,BRUGGE,West-Vlaanderen,inkom,Oui-Ja,,,51.196278357504,3.169482910619
16056.0,Appareil fixe-Vast apparaat,Parochiaansstraat ,,1000.0,BRUSSEL,Bruxelles-Brussel,"Back Office, achter receptie",Oui-Ja,,,50.846958785934,4.359254479278
16057.0,Appareil fixe-Vast apparaat,Waterstraat,51.0,8790.0,WAREGEM,West-Vlaanderen,/,Oui-Ja,,,50.88665630244,3.40806925828
11893.0,Appareil fixe-Vast apparaat,Steverlyncklaan,12.0,8900.0,IEPER,West-Vlaanderen,/,Oui-Ja,,,50.84868938236,2.900487353513
16058.0,Appareil fixe-Vast apparaat,Esenstraat,86.0,8610.0,KORTEMARK,West-Vlaanderen,/,Oui-Ja,,,51.01770539228,2.949242259662
16059.0,Appareil fixe-Vast apparaat,Melkerijstraat,38.0,2900.0,SCHOTEN,Antwerpen,INKOM,Oui-Ja,,,51.23821222281,4.475237915514
16060.0,Appareil fixe-Vast apparaat,Halewijnlaan,82.0,2050.0,ANTWERPEN,Antwerpen,Brandweerwagen ( Ladderwagen/hoogtewerker) ,Oui-Ja,,,51.224789107789,4.377746155661
16061.0,Appareil fixe-Vast apparaat,Kruisweg,22.0,2040.0,ANTWERPEN,Antwerpen,MOBIEL TOESTEL,Oui-Ja,,,51.317540084617,4.346269275876
16062.0,Appareil fixe-Vast apparaat,Jules Moretuslei,150.0,2610.0,WILRIJK,Antwerpen,In brandweerwagen (1ste hulp) ,Oui-Ja,,,51.171628060365,4.381362611605
16063.0,Appareil fixe-Vast apparaat,Sint-jacobsmarkt,58.0,2000.0,ANTWERPEN,Antwerpen,Brandweerwagen ( 1ste hulp) ,Oui-Ja,,,51.219985564807,4.41295777653
16064.0,Appareil fixe-Vast apparaat,Scheldelaan,151.0,2040.0,ANTWERPEN,Antwerpen,Brandweerwagen ( 1ste hulp ) ,Oui-Ja,,,51.297423160308,4.311805974837
16065.0,Appareil fixe-Vast apparaat,Waterbaan,58.0,2100.0,DEURNE,Antwerpen,Brandweerwagen ( Ladderwagen ) ,Oui-Ja,,,51.20629204959,4.463429574139
16066.0,Appareil fixe-Vast apparaat,Waterbaan,58.0,2100.0,DEURNE,Antwerpen,Brandweerwagen (1ste hulp ) ,Non-Nee,,,51.20629204959,4.463429574139
16067.0,Appareil fixe-Vast apparaat,Noorderlaan,69.0,2000.0,ANTWERPEN,Antwerpen,Brandweerwagen  (Ladderwagen) ,Non-Nee,,,51.250564130605,4.418432165132
16068.0,Appareil fixe-Vast apparaat,Noorderlaan,9.0,2030.0,ANTWERPEN,Antwerpen,Brandweerwagen (1ste hulp) ,Non-Nee,,,51.260286719194,4.402359698155
16069.0,Appareil fixe-Vast apparaat,Noorderlaan,69.0,2030.0,ANTWERPEN,Antwerpen,Brandweerwagen (snelle interventiewagen ) ,Non-Nee,,,51.250564130605,4.418432165132
16070.0,Appareil fixe-Vast apparaat,Paleisstraat,124.0,2018.0,ANTWERPEN,Antwerpen,Brandweerwagen (Snelle interventiewagen ) ,Non-Nee,,,51.205408948241,4.396923943935
16071.0,Appareil fixe-Vast apparaat,Noorderlaan,69.0,2030.0,ANTWERPEN,Antwerpen,Brandweerwagen (duikwagen) ,Non-Nee,,,51.250564130605,4.418432165132
16074.0,Appareil fixe-Vast apparaat,Kruisweg,22.0,2040.0,ANTWERPEN,Antwerpen,Brandweerwagen (1ste hulp ) ,Non-Nee,,,51.317540084617,4.346269275876
16075.0,Appareil fixe-Vast apparaat,Paleisstraat,124.0,2018.0,ANTWERPEN,Antwerpen,Brandweerwagen (ladderwagen),Non-Nee,,,51.205408948241,4.396923943935
16076.0,Appareil fixe-Vast apparaat,Jules Moretuslei,150.0,2610.0,WILRIJK,Antwerpen,Brandweerwagen ( Ladderwagen) ,Non-Nee,,,51.171628060365,4.381362611605
16077.0,Appareil fixe-Vast apparaat,Noorderlaan,69.0,2030.0,ANTWERPEN,Antwerpen,Reserve toestel 2,Non-Nee,,,51.250564130605,4.418432165132
16078.0,Appareil fixe-Vast apparaat,Halewijnlaan,82.0,2050.0,ANTWERPEN,Antwerpen,Brandweerwagen (1ste hulp ) ,Non-Nee,,,51.224789107789,4.377746155661
16079.0,Appareil fixe-Vast apparaat,Scheldelaan,151.0,2040.0,ANTWERPEN,Antwerpen,Brandweerwagen (Ladderwagen/ hoogtewerker) ,Non-Nee,,,51.297423160308,4.311805974837
16080.0,Appareil fixe-Vast apparaat,Noorderlaan,69.0,2030.0,ANTWERPEN,Antwerpen,Reserve toestel 1,Non-Nee,,,51.250564130605,4.418432165132
16081.0,Appareil fixe-Vast apparaat,Sint-jacobsmarkt,58.0,2000.0,ANTWERPEN,Antwerpen,Brandweerwagen (ladderwagen) ,Non-Nee,,,51.219985564807,4.41295777653
16082.0,Appareil fixe-Vast apparaat,Noorderlaan,69.0,2030.0,ANTWERPEN,Antwerpen,Brandweerwagen (2de hulp ) pompwagen ATP2,Non-Nee,,,51.250564130605,4.418432165132
16083.0,Appareil fixe-Vast apparaat,Paleisstraat,124.0,2018.0,ANTWERPEN,Antwerpen,Brandweerwagen (1ste hulp ) ,Non-Nee,,,51.205408948241,4.396923943935
16084.0,Appareil fixe-Vast apparaat,Bargelaan,12.0,8730.0,BEERNEM,West-Vlaanderen,Buitenkast inkom,Oui-Ja,,,51.137311584846,3.338279353147
16085.0,Appareil fixe-Vast apparaat,Tinhoutstraat,91.0,8730.0,BEERNEM,West-Vlaanderen,Buitenkast jeugdlokaal oostveld,Oui-Ja,,,51.160168825258,3.386884417099
16086.0,Appareil fixe-Vast apparaat,Noordkaai,11.0,8870.0,IZEGEM,West-Vlaanderen,Buitenkast Achterkant los kaai,Oui-Ja,Oui-Ja,,50.927348975524,3.199124086275
16087.0,Appareil fixe-Vast apparaat,Knijffelingstraat,15.0,8851.0,KOOLSKAMP,West-Vlaanderen,Buitenkast inkom,Oui-Ja,,,50.998895434197,3.200652861595
16088.0,Appareil fixe-Vast apparaat,Speiestraat,90.0,8940.0,WERVIK,West-Vlaanderen,MOBIEL TOESTEL,Non-Nee,,,50.780003373874,3.048541686986
16089.0,Appareil fixe-Vast apparaat,Leuvenselaan,93.0,3300.0,TIENEN,Vlaams-Brabant,INKOM,Oui-Ja,,,50.810889052605,4.92650566852
16090.0,Appareil fixe-Vast apparaat,Jacobsveldweg,12.0,2160.0,WOMMELGEM,Antwerpen,In de inkomhal,Oui-Ja,,,51.212966600998,4.533895479764
16091.0,Appareil fixe-Vast apparaat,De Robianostraat,94.0,2150.0,BORSBEEK,Antwerpen,In de produktieruimte paaseitjes ,Oui-Ja,,,51.19530220106,4.483521331327
16092.0,Appareil fixe-Vast apparaat,Esserstraat,18.0,8550.0,ZWEVEGEM,West-Vlaanderen,MOBIEL TOESTEL,Non-Nee,,,50.823950404685,3.351038202341
16093.0,Appareil fixe-Vast apparaat,Esserstraat,18.0,8550.0,ZWEVEGEM,West-Vlaanderen,In de toonzaal,Oui-Ja,,,50.823950404685,3.351038202341
16094.0,Appareil fixe-Vast apparaat,Oude gaversesteenweg,24.0,9820.0,MERELBEKE,Oost-Vlaanderen,ST JOZEF ZAAL EERST BELLEN,Non-Nee,,,51.005949266723,3.749072404461
6570.0,Appareil fixe-Vast apparaat,Ringlaan,,8500.0,KORTRIJK,West-Vlaanderen,toonzaal recepie,Oui-Ja,,,50.853270045781,3.242567177753
6574.0,Appareil fixe-Vast apparaat,Franklin Rosseveltlaan,165.0,8790.0,WAREGEM,West-Vlaanderen,In de werkplaats mechanique.,Oui-Ja,,,50.874003777687,3.442898748183
16095.0,Appareil fixe-Vast apparaat,          Bovekerkestraat,,8680.0,BOVEKERKE,West-Vlaanderen,Naast de voordeur,Oui-Ja,,,51.059202444879,2.963390893214
16096.0,Appareil fixe-Vast apparaat,Lekestraat,42.0,8680.0,MOKKER,West-Vlaanderen,Voorgevel straatkant,Oui-Ja,,,51.086158338509,2.942837925136
16097.0,Appareil fixe-Vast apparaat,Sint Andriesstraat,8.0,8680.0,ZANDE,West-Vlaanderen,Voorgevel straatkant,Oui-Ja,,,51.119860923439,2.922751448547
16098.0,Appareil fixe-Vast apparaat,Bermstraat,10.0,9100.0,Sint-Niklaas,Oost-Vlaanderen,"Buiten, naast de ingang.",Oui-Ja,Oui-Ja,,51.141406689371,4.08744413596
9344.0,Appareil fixe-Vast apparaat,Mechelseweg,,1880.0,KAPELLE-OP-DEN-BOS,Vlaams-Brabant,buitengevel ingang pastorie,Oui-Ja,,,51.012741000652,4.374956295268
9347.0,Appareil fixe-Vast apparaat,MECHELSEWEG ,347.0,1880.0,KAPELLE-OP-DEN-BOS,Vlaams-Brabant,buitengevel naast schoolpoort,Oui-Ja,,,51.012382084044,4.368841305547
16099.0,Appareil fixe-Vast apparaat,MARKTPLEIN,27.0,1880.0,KAPELLE-OP-DEN-BOS,Vlaams-Brabant,buitengevel aan inkom,Oui-Ja,,,51.013624407823,4.360314311627
16100.0,Appareil fixe-Vast apparaat,MOLENSTRAAT,52.0,1880.0,KAPELLE-OP-DEN-BOS,Vlaams-Brabant,Voorgevel naast inkom,Oui-Ja,,,50.984742884051,4.352437166661
15888.0,Appareil fixe-Vast apparaat,VELDSTRAAT,11.0,1880.0,KAPELLE-OP-DEN-BOS,Vlaams-Brabant,Buitenkast Inkom,Oui-Ja,,,51.006439901426,4.355370078401
16101.0,Appareil fixe-Vast apparaat,EVERT LAROCKSTRAAT,22.0,1880.0,KAPELLE-OP-DEN-BOS,Vlaams-Brabant,"buitengevel,parkingzijde",Oui-Ja,,,51.013412513311,4.368126413025
16102.0,Appareil fixe-Vast apparaat,BORMSTRAAT,219.0,1880.0,RAMSDONK,Vlaams-Brabant,Voorgevel parkingzijde,Oui-Ja,,,51.015077159281,4.336357742705
16103.0,Appareil fixe-Vast apparaat,Schoolstraat,3.0,2400.0,Mol,Antwerpen,Aan de buitenkant van het gebouw.,Oui-Ja,Oui-Ja,,51.178146037822,5.087784549728
16104.0,Appareil fixe-Vast apparaat,Guido Gezellestraat ,29.0,2400.0,Mol,Antwerpen,Buiten het gebouw,Oui-Ja,Oui-Ja,,51.190883596982,5.120035430938
16105.0,Appareil fixe-Vast apparaat,Kapellestraat,90.0,2400.0,Mol,Antwerpen,Buiten gebouw,Oui-Ja,Oui-Ja,,51.197453081234,5.12704898842
16106.0,Appareil fixe-Vast apparaat,Axpoelmolenstraat,10.0,8700.0,TIELT,West-Vlaanderen,MOBIEL TOESTEL,Non-Nee,Non-Nee,,51.01785089868,3.381590909968
16107.0,Appareil fixe-Vast apparaat,Steenweg naar Halle ,6.0,1652.0,ALSEMBERG,Vlaams-Brabant,/,Oui-Ja,,,50.74037293938,4.337513188057
16108.0,Appareil fixe-Vast apparaat,Hofdreef,2.0,2970.0,SCHILDE,Antwerpen,In de fitnessruimte,Oui-Ja,,,51.243219990862,4.540659424169
16109.0,Appareil fixe-Vast apparaat,Oude Heirbaan,,9800.0,GOTTEM,Oost-Vlaanderen,/,Oui-Ja,,,50.959297277779,3.455908129112
6571.0,Appareil fixe-Vast apparaat,Ronseweg,114.0,9700.0,OUDENAARDE,Oost-Vlaanderen,/,Oui-Ja,,,50.824191971134,3.604559173623
16110.0,Appareil fixe-Vast apparaat,Armoedestraat,71.0,8800.0,ROESELARE,West-Vlaanderen,Magazijn,Oui-Ja,,,50.92665248128,3.172933069604
16111.0,Appareil fixe-Vast apparaat,Bergelen,32.0,8560.0,WEVELGEM,West-Vlaanderen,In bureel,Oui-Ja,,,50.83734464405,3.192369445782
16112.0,Appareil fixe-Vast apparaat,Luxemburgstraat ,,1050.0,ELSENE,Bruxelles-Brussel,Inkom naast de lift. Inkomdeur bij huisnummers 47 & 51,Oui-Ja,,,50.839515314342,4.371078414233
16113.0,Appareil fixe-Vast apparaat,Kreupelenstraat,2.0,1000.0,BRUSSEL,Bruxelles-Brussel,Inkom receptie,Oui-Ja,,,50.850997087942,4.356245065274
16114.0,Appareil fixe-Vast apparaat,Martelaarsplein,7.0,1000.0,BRUSSEL,Bruxelles-Brussel,Inkom receptie,Oui-Ja,,,50.851278426522,4.355929151343
16115.0,Appareil fixe-Vast apparaat,Martelaarsplein,19.0,1000.0,BRUSSEL,Bruxelles-Brussel,Inkom receptie,Oui-Ja,,,50.852131159442,4.35674663836
16116.0,Appareil fixe-Vast apparaat,Lattenklieversstraat,46.0,8730.0,BEERNEM,West-Vlaanderen,Buitenkant inkom,Oui-Ja,,,51.127325385403,3.368706332226
16117.0,Appareil fixe-Vast apparaat,Martelaarslaan,13.0,9000.0,GENT,Oost-Vlaanderen,Buitenkast tussen de 2 gebouwen ( gevel CVO),Oui-Ja,,,51.046128841604,3.712039228395
16118.0,Appareil fixe-Vast apparaat,Erasmuslaan,50.0,1804.0,CARGOVIL,Vlaams-Brabant,Inkom,Oui-Ja,,,50.950092976424,4.42313382608
16119.0,Appareil fixe-Vast apparaat,Nauwstraat,126.0,9111.0,BELSELE,Oost-Vlaanderen,/,Oui-Ja,,,51.17537171169,4.108558317697
16120.0,Appareil fixe-Vast apparaat,Stationstraat,111.0,9080.0,LOCHRISTI,Oost-Vlaanderen,Ingang,Oui-Ja,,,51.083137374876,3.836411081178
16121.0,Appareil fixe-Vast apparaat,Lichtelarestraat,87.0,9080.0,LOCHRISTI,Oost-Vlaanderen,/,Oui-Ja,,,51.079254290592,3.819790689191
16122.0,Appareil fixe-Vast apparaat,land van rodelaan,20.0,9050.0,GENTBRUGGE,Oost-Vlaanderen,/,Oui-Ja,,,51.036789473629,3.759434448443
16123.0,Appareil fixe-Vast apparaat,Ondernemingsstraat,,8630.0,AVEKAPELLE,West-Vlaanderen,/,Oui-Ja,,,51.06173171311,2.680213865419
16124.0,Appareil fixe-Vast apparaat,Papestraat,10.0,9450.0,HAALTERT,Oost-Vlaanderen,Naast de toog. Vooraf bellen 0497/639384 0494/570281,Non-Nee,,,50.903109182093,4.006272193047
16125.0,Appareil fixe-Vast apparaat,Veldekensstraat,64.0,9070.0,DESTELBERGEN,Oost-Vlaanderen,Naast de toog. Vooraf bellen Georgette0468/141758 ,Non-Nee,,,51.075224564911,3.814574463207
16126.0,Appareil fixe-Vast apparaat,Poelkapellestraat,,8650.0,HOUTHULST,West-Vlaanderen,Inkom links ,Oui-Ja,,,50.964250694415,2.946802324731
16127.0,Appareil fixe-Vast apparaat,Gentstraat,39.0,8780.0,OOSTROZEBEKE,West-Vlaanderen,/,Oui-Ja,,,50.957620763666,3.36240381159
16128.0,Appareil fixe-Vast apparaat,Kapellestraat,113.0,8020.0,OOSTKAMP,West-Vlaanderen,/,Oui-Ja,,,51.143901688579,3.25105056318
16129.0,Appareil fixe-Vast apparaat,Leuvensesteenweg,532.0,1930.0,NOSSEGEM,Vlaams-Brabant,"Gebouw Asco 8 , in de refter",Oui-Ja,,,50.873289220442,4.488835625578
16130.0,Appareil fixe-Vast apparaat,Avenue du Parc industriel,,4041.0,Milmort,Liège,"Rez-de-chaussée,  corps de garde ",Non-Nee,Oui-Ja,,50.697800712295,5.589664344616
16131.0,Appareil fixe-Vast apparaat,Rue de l ancienne Potence,12.0,7501.0,ORCQ,Hainaut,Inkom,Oui-Ja,,,50.613142396609,3.344160599329
16132.0,Appareil fixe-Vast apparaat,Avenue des Amériques,1.0,7080.0,Framcries,Hainaut,/,Oui-Ja,,,50.409399773201,3.917651409542
16133.0,Appareil fixe-Vast apparaat,Industrielaan,125.0,1070.0,ANDERLECHT,Bruxelles-Brussel,Achter de receptie.,Oui-Ja,,,50.818638415457,4.307758353794
16134.0,Appareil fixe-Vast apparaat,sint baafskerkstraat,1.0,8200.0,SINT-ANDRIES,West-Vlaanderen,inkom,Oui-Ja,,,51.202374767141,3.205056713524
16135.0,Appareil fixe-Vast apparaat,industriezone,17.0,9770.0,KRUISHOUTEM,Oost-Vlaanderen,/,Oui-Ja,,,50.90401497246,3.476707154641
16136.0,Appareil fixe-Vast apparaat,stationstraat,111.0,9080.0,BEERVELDE,Oost-Vlaanderen,in de refter ,Oui-Ja,,,51.083137374876,3.836411081178
16137.0,Appareil fixe-Vast apparaat,Avenue jean-etienne lenoir,1.0,1348.0,Louvain-La-Neuve,Brabant Wallon,INKOM,Oui-Ja,,,50.662874214296,4.627171451309
16138.0,Appareil fixe-Vast apparaat,Kapiteinstraat,122.0,9000.0,GENT,Oost-Vlaanderen,In de bureelruimte,Oui-Ja,,,51.089174859733,3.720875430722
16139.0,Appareil fixe-Vast apparaat,Diestsepoort,6.0,3000.0,LEUVEN,Vlaams-Brabant,Koffie bar,Oui-Ja,,,50.883531612756,4.714649629181
16140.0,Appareil fixe-Vast apparaat,Rue Emile Francqui,7.0,1435.0,Mont-Saint-Hubert,Hainaut,3e verdieping Inkom Receptie,Oui-Ja,,,50.65429,3.40067
16141.0,Appareil fixe-Vast apparaat,Kontichsesteenweg,42.0,2630.0,AARTSELAAR,Antwerpen,1 verdieping rechts inkom,Oui-Ja,,,51.143326564293,4.388284051972
16142.0,Appareil fixe-Vast apparaat,Chaamseweg,13.0,2387.0,BAARLE-HERTOG,Antwerpen,Inkom,Oui-Ja,,,51.444991594853,4.923459852544
16143.0,Appareil fixe-Vast apparaat,August Van Landeghemstraat,117.0,2830.0,WILLEBROEK,Antwerpen,Inkom Sportzaal,Oui-Ja,,,51.064485377196,4.361547541042
16144.0,Appareil fixe-Vast apparaat,Breendonkstraat,160.0,2830.0,WILLEBROEK,Antwerpen,Inkom Sportzaal,Oui-Ja,,,51.05102638763,4.346175046799
16145.0,Appareil fixe-Vast apparaat,Binnenvaartstraat,30.0,3530.0,HELCHTEREN,Limburg,De Plas Cafetaria,Oui-Ja,Oui-Ja,,51.027438161442,5.41244357145
16146.0,Appareil fixe-Vast apparaat,Acaciastraat,21.0,2440.0,GEEL,Antwerpen,Inkom receptie,Oui-Ja,,,51.116616372539,5.02324364382
16147.0,Appareil fixe-Vast apparaat,Nijverheidsstraat,2.0,8850.0,ARDOOIE,West-Vlaanderen,toestel hangt tussen refter en bureau inkoop.,Oui-Ja,,,50.978291020681,3.241051559723
16148.0,Appareil fixe-Vast apparaat,Rue Maria Therese,11.0,1000.0,BRUSSEL,Bruxelles-Brussel,Inkom,Oui-Ja,,,50.846541184395,4.372023830364
16149.0,Appareil fixe-Vast apparaat,Moerhofstraat,,9180.0,Moerbeke-Waas,Oost-Vlaanderen,Buiten aan hoofdingang,Oui-Ja,Oui-Ja,,51.177037896095,3.94863964862
16150.0,Appareil fixe-Vast apparaat,Ossegemstraat,24.0,1860.0,MEISE,Vlaams-Brabant,Inkom Toonzaal,Oui-Ja,,,50.958809485174,4.316415015755
16151.0,Appareil fixe-Vast apparaat,Gemeenschappenlaan,110.0,1200.0,SINT-LAMBRECHTS-WOLUWE,Bruxelles-Brussel,3e verdieping,Oui-Ja,,,50.855198600728,4.427050521796
16152.0,Appareil fixe-Vast apparaat,Priester Pattijnstraat,15.0,8870.0,Izegem,West-Vlaanderen,Buiten kant voetbalterrein,Oui-Ja,Oui-Ja,,50.939595313249,3.183999193452
16153.0,Appareil fixe-Vast apparaat,Sportstraat,1.0,8730.0,Beernem,West-Vlaanderen,Buiten aan hoofdingang,Oui-Ja,Oui-Ja,,51.167426882855,3.332756684782
16154.0,Appareil fixe-Vast apparaat,Wellingstraat,,8730.0,Beernem,West-Vlaanderen,Buiten aan hoofdingang,Oui-Ja,Oui-Ja,,51.133428148303,3.323896511225
16155.0,Appareil fixe-Vast apparaat,Schaliënstraat,5.0,2000.0,ANTWERPEN,Antwerpen,1 ste verdieping refter,Oui-Ja,,,51.208574190367,4.386866588326
16156.0,Appareil fixe-Vast apparaat,Neerhoflaan,2.0,1780.0,WEMMEL,Vlaams-Brabant,in de keuken,Oui-Ja,,,50.912540331908,4.307621812591
16157.0,Appareil fixe-Vast apparaat,Mechelsesteenweg,355.0,2830.0,BLAASVELD,Antwerpen,inkom rechts,Oui-Ja,,,51.047331225615,4.380402045502
16158.0,Appareil fixe-Vast apparaat,Spinnerijkaai ,,8500.0,KORTRIJK,West-Vlaanderen,Inkom,Oui-Ja,,,50.832497769775,3.279933927065
16159.0,Appareil fixe-Vast apparaat,Brusselsesteenweg ,,9090.0,GONTRODE,Oost-Vlaanderen,1 verdiep lift,Oui-Ja,,,51.033707908836,3.756928929946
16160.0,Appareil fixe-Vast apparaat,Marcel de Bisschopstraat,15.0,9300.0,AALST,Oost-Vlaanderen,inkom,Oui-Ja,,,50.922547695657,4.030845250949
16161.0,Appareil fixe-Vast apparaat,Heidelbergstraat,24.0,8210.0,LOPPEM,West-Vlaanderen,/,Oui-Ja,,,51.154904109964,3.183405000336
13371.0,Appareil fixe-Vast apparaat,Wijnbergstraat,121.0,8560.0,WEVELGEM,West-Vlaanderen,Buitenkast Inkom,Oui-Ja,,,50.819090409586,3.169541500122
16162.0,Appareil fixe-Vast apparaat,Rijkegemkouterstraat,7.0,8700.0,TIELT,West-Vlaanderen,INKOM,Oui-Ja,,,51.011660276452,3.345677472346
12264.0,Appareil fixe-Vast apparaat,Paleizenstraat,70.0,1030.0,SCHAARBEEK,Bruxelles-Brussel,Buitenkast gebouw C blok-2,Oui-Ja,,,50.86123910307,4.367352763362
12265.0,Appareil fixe-Vast apparaat,Victor Rousseaulaan,75.0,1190.0,VORST,Bruxelles-Brussel,Inkom,Oui-Ja,,,50.814558691724,4.330963652735
13372.0,Appareil fixe-Vast apparaat,Jupiterlaan,192.0,1190.0,VORST,Bruxelles-Brussel,Inkom ,Oui-Ja,,,50.820715576792,4.339993812302
12266.0,Appareil fixe-Vast apparaat,Borsbeeksebrug,22.0,2000.0,ANTWERPEN,Antwerpen,4e verdieping ehbo lokaal,Oui-Ja,,,51.199000979139,4.435263974923
16163.0,Appareil fixe-Vast apparaat,Bergkapekstraat,98.0,1840.0,LONDERZEEL,Vlaams-Brabant,/,Oui-Ja,,,51.008500592321,4.325341910275
12263.0,Appareil fixe-Vast apparaat,Alexianenplein,1.0,9000.0,GENT,Oost-Vlaanderen,Inkom,Oui-Ja,,,51.051902003145,3.717477658632
13374.0,Appareil fixe-Vast apparaat,Drie Sleutelsstraat,74.0,9300.0,AALST,Oost-Vlaanderen,Buitengevel naast de toegangspoort,Oui-Ja,,,50.94701409384,4.041872063671
13375.0,Appareil fixe-Vast apparaat,Kouterstraat,,1703.0,SCHEPDAAL,Vlaams-Brabant,In de gang van de toiletten (enkel op afspraak),Non-Nee,,,50.840074439136,4.187582856617
16164.0,Appareil fixe-Vast apparaat,J.hammeneckersstraat,72.0,2800.0,BORNEM,Antwerpen,Buitenkast Inkom gemeenschapshuis mariekerke,Oui-Ja,,,51.061688671383,4.193714682103
13361.0,Appareil fixe-Vast apparaat,Sint-Jansstraat,1.0,9800.0,DEINZE,Oost-Vlaanderen,Leiezicht,Oui-Ja,,,50.976568810165,3.472922138624
13363.0,Appareil fixe-Vast apparaat,Nieuwstraat,3.0,9800.0,DEINZE,Oost-Vlaanderen,TEn HOve,Oui-Ja,,,50.98325400659,3.560616375674
7820.0,Appareil fixe-Vast apparaat,Leernsesteenweg,191.0,9800.0,DEINZE,Oost-Vlaanderen,Zijkant gebouw oud gemeentehuis,Oui-Ja,,,51.008258900143,3.576620865416
16165.0,Appareil fixe-Vast apparaat,Hellestraat,102.0,9190.0,STEKENE,Oost-Vlaanderen,In de kantine.  Op afspraak Filip: 0478/623373,Non-Nee,,,51.228629737733,4.041132947449
13365.0,Appareil fixe-Vast apparaat,Rijksweg,66.0,2880.0,BORNEM,Antwerpen,EHBO lokaal ( Ghislain De waele ),Oui-Ja,,,51.102675465449,4.245878534506
13366.0,Appareil fixe-Vast apparaat,Schoondonkweg,17.0,2830.0,WILLEBROEK,Antwerpen,INKOM,Oui-Ja,,,51.045871726724,4.368171256207
13367.0,Appareil fixe-Vast apparaat,Kontichsesteenweg,65.0,2630.0,AARTSELAAR,Antwerpen,Werkplaats,Oui-Ja,,,51.145116938811,4.392042162079
13368.0,Appareil fixe-Vast apparaat,Schoondonkweg,17.0,2830.0,WILLEBROEK,Antwerpen,Werkplaats,Oui-Ja,,,51.045871726724,4.368171256207
16166.0,Appareil fixe-Vast apparaat,Prins Boudewijnlaan,5.0,2550.0,KONTICH,Antwerpen,1e verdieping inkom,Oui-Ja,,,51.139399852203,4.437201677094
13369.0,Appareil fixe-Vast apparaat,Grotesteenweg,155.0,2600.0,BERCHEM,Antwerpen,Inkom onder trap,Oui-Ja,,,51.194522432608,4.419474035697
13370.0,Appareil fixe-Vast apparaat,Doornpannestraat,2.0,8670.0,KOKSIJDE,West-Vlaanderen,Buitenkast inkom,Oui-Ja,Oui-Ja,,51.121413066885,2.660451145443
12042.0,Appareil fixe-Vast apparaat,Rue de Charneux,96.0,4651.0,BATTICE,Liège,In de refter.,Oui-Ja,,,50.649624880206,5.797705741351
16167.0,Appareil fixe-Vast apparaat,Bloemstraat,56.0,2920.0,KALMTHOUT,Antwerpen,Naast kantoor laadkade,Oui-Ja,,,51.394659733118,4.504712291297
16168.0,Appareil fixe-Vast apparaat,Bloemstraat,56.0,2920.0,KALMTHOUT,Antwerpen,Buitengevel inkom winkel.,Oui-Ja,,,51.394659733118,4.504712291297
3727.0,Appareil fixe-Vast apparaat,Kruidtuinlaan,55.0,1000.0,BRUSSEL,Bruxelles-Brussel,Gebouw Doorbuilding aan onthaal,Oui-Ja,,,50.852970481316,4.365208421073
16169.0,Appareil fixe-Vast apparaat,Kruidtuinlaan,55.0,1000.0,BRUSSEL,Bruxelles-Brussel,/,Oui-Ja,,,50.852970481316,4.365208421073
3728.0,Appareil fixe-Vast apparaat,Kruidtuinlaan,,1000.0,BRUSSEL,Bruxelles-Brussel,Gebouw Finance Tower- EHBO LOKAAL/ INFIRMERIE,Oui-Ja,,,50.854407557433,4.360926152528
3730.0,Appareil fixe-Vast apparaat,Kruidtuinlaan ,,1000.0,BRUSSEL,Bruxelles-Brussel,Gebouw Finance Tower-EHBO lokaal,Oui-Ja,,,50.854407557433,4.360926152528
3737.0,Appareil fixe-Vast apparaat,Kruidtuinlaan,,1000.0,BRUSSEL,Bruxelles-Brussel,Gebouw Finance-gelijkvl dispatching,Oui-Ja,,,50.854407557433,4.360926152528
3738.0,Appareil fixe-Vast apparaat,Kruidtuinlaan ,,1000.0,BRUSSEL,Bruxelles-Brussel,Finance Tower- gelijkvloers dispatch,Oui-Ja,,,50.854407557433,4.360926152528
3733.0,Appareil fixe-Vast apparaat,Kruidtuinlaan ,,1000.0,BRUSSEL,Bruxelles-Brussel,Finance Tower verd 1 data lokaal,Oui-Ja,,,50.854407557433,4.360926152528
3734.0,Appareil fixe-Vast apparaat,Kruidtuinlaan,,1000.0,BRUSSEL,Bruxelles-Brussel,Finance Tower 1 verd in datalokaal,Oui-Ja,,,50.854407557433,4.360926152528
4878.0,Appareil fixe-Vast apparaat,Drinkeling,10.0,1785.0,BRUSSEGEM,Vlaams-Brabant,/,Oui-Ja,,,50.925368960446,4.26300829475
13346.0,Appareil fixe-Vast apparaat,Dendermondestraat,25.0,1785.0,MERCHTEM,Vlaams-Brabant,/,Oui-Ja,,,50.961209182144,4.228455156194
13347.0,Appareil fixe-Vast apparaat,Tussenhagenweg,1.0,3111.0,WEZEMAAL,Vlaams-Brabant,In gang naar het terras (Vooraf bellen 0477/838751),Non-Nee,,,50.948945996793,4.757121822218
13348.0,Appareil fixe-Vast apparaat,Kroonlaan,358.0,1050.0,ELSENE,Bruxelles-Brussel,Aan het onthaal,Oui-Ja,,,50.823559807997,4.387002375157
13349.0,Appareil fixe-Vast apparaat,Tervurenlaan,270.0,1150.0,BRUSSEL,Bruxelles-Brussel,"2é verdieping,in het secretariaat",Oui-Ja,,,50.835394300909,4.420397972884
13350.0,Appareil fixe-Vast apparaat,Gouverneur Roppesingel,131.0,3500.0,HASSELT,Limburg,In het bureel naast het onthaal,Oui-Ja,,,50.917825624774,5.350451099384
16170.0,Appareil fixe-Vast apparaat,Vriendschapsplein,2.0,3940.0,Hechtel-Eksel,Limburg,"Buitengevel,achteraan naast de inkom.",Oui-Ja,,,51.125547416101,5.36329116922
16171.0,Appareil fixe-Vast apparaat,Lochtstraat,,3940.0,Hechtel-Eksel,Limburg,"buitengevel,naast de ingang.",Oui-Ja,,,51.146821717185,5.36268786055
13351.0,Appareil fixe-Vast apparaat,Deinsesteenweg,114.0,9031.0,GENT,Oost-Vlaanderen,"1é verdiep,inkom,in de brandslangkast.",Oui-Ja,,,51.039371351264,3.628484310409
16172.0,Appareil fixe-Vast apparaat,Tondelierlaan,19.0,9000.0,GENT,Oost-Vlaanderen,In de bergruimte,Oui-Ja,,,51.066023037334,3.715784681829
13352.0,Appareil fixe-Vast apparaat,Centrumlaan,98.0,9400.0,NINOVE,Oost-Vlaanderen,"Hoofdingang burelen,naast onthaal",Oui-Ja,,,50.832878682219,4.018288405621
13353.0,Appareil fixe-Vast apparaat,Mechelsesteenweg ,,2018.0,ANTWERPEN,Antwerpen,1é verdiep in zaal Drucker,Oui-Ja,,,51.207115114992,4.409647472313
16173.0,Appareil fixe-Vast apparaat,Meir,13.0,2430.0,EINDHOUT,Antwerpen,/,Oui-Ja,,,51.102492404684,4.999216163996
16174.0,Appareil fixe-Vast apparaat,Grevensmolenweg,26.0,2800.0,SINT-TRUIDEN,Limburg,Mobiel toestel (vooraf bellen Eddy 0495/231114),Non-Nee,,,50.820977553176,5.176264254924
13202.0,Appareil fixe-Vast apparaat,Sacramentstraat,70.0,3700.0,TONGEREN,Limburg,Naast bureel directie (s maandags gesloten),Oui-Ja,,,50.784942745597,5.466275506404
13203.0,Appareil fixe-Vast apparaat,Tennislaan,1.0,3900.0,OVERPELT,Limburg,Buitengevel naast secretariaat,Oui-Ja,,,51.232524640501,5.404207345752
13204.0,Appareil fixe-Vast apparaat,Minderbroedersstraat,8.0,3000.0,LEUVEN,Vlaams-Brabant,"Gebouw nr 8 , in de inkom",Oui-Ja,,,50.877856477573,4.695916494679
16175.0,Appareil fixe-Vast apparaat,kattenbroek,33.0,2650.0,EDEGEM,Antwerpen,Ingang kantine buiten,Oui-Ja,,,51.150873043179,4.424795203109
16176.0,Appareil fixe-Vast apparaat,Avenue des Arts,47.0,1000.0,Bruxelles,Bruxelles-Brussel,"Au 5ème étage. Nous entrons par la porte principal du bureau. On tourne à droite,à droite et encore à droite, et on voit tout suite l appareil sur le mur. ",Non-Nee,Non-Nee,09:00 - 16:00,50.842250697707,4.367322839968
16177.0,Appareil fixe-Vast apparaat,Allée de la recherche ,4.0,1070.0,Anderlecht,Bruxelles-Brussel, ,Oui-Ja,Non-Nee,,50.817228118338,4.265358831857
16178.0,Appareil fixe-Vast apparaat,Den Boer,17.0,9930.0,Lievegem,Oost-Vlaanderen,Buiten op eerste verdieping,Oui-Ja,Oui-Ja,,51.123228730226,3.561824627017
16179.0,Appareil fixe-Vast apparaat,Tulpenstraat,,9930.0,Lievegem,Oost-Vlaanderen,Buiten,Oui-Ja,Oui-Ja,,51.106033056084,3.634114543102
16180.0,Appareil fixe-Vast apparaat,Neerstraat,43.0,9920.0,Lievegem,Oost-Vlaanderen,Buiten,Oui-Ja,Oui-Ja,,51.087281433135,3.649303909803
16181.0,Appareil fixe-Vast apparaat,Sportstraat,24.0,9920.0,Lievegem,Oost-Vlaanderen,Buiten aan hoofdingang,Oui-Ja,Oui-Ja,,51.101201801142,3.608717100513
16182.0,Appareil fixe-Vast apparaat,Avenue Louise,489.0,1050.0,Bruxelles,Bruxelles-Brussel,"6ème étage, réception Bandwidth",Non-Nee,Non-Nee,9h00-17h30,50.816682749808,4.37128136138
16183.0,Appareil fixe-Vast apparaat,Ordamstraat,10.0,2030.0,Antwerpen,Antwerpen,"Gelijkvloers, in omgeving magazijn",Non-Nee,Non-Nee,Ma - Vr 08-16u,51.289384202701,4.356512280347
16184.0,Appareil fixe-Vast apparaat,Pellenbergstraat,160.0,3010.0,Kessel-Lo,Vlaams-Brabant,Gelijkvloers centrale inkom,Oui-Ja,Oui-Ja,,50.87014001369,4.748831617063
16185.0,Appareil fixe-Vast apparaat,Rue André Dumont,,1435.0,Mont-Saint-Guibert,Brabant Wallon,Rez de chaussée dans le bureau ,Non-Nee,Non-Nee,Pas accessible au public,50.656948755938,4.627428883206
16186.0,Appareil fixe-Vast apparaat,VELDKANT ,2.0,2550.0,KONTICH,Antwerpen,INGANG KANTOOR - GELIJKVLOERS,Oui-Ja,Oui-Ja,,51.141704456481,4.441377373618
16188.0,Appareil fixe-Vast apparaat,Rue du Château,8.0,5580.0,Lavaux-Sainte-Anne,Namur,Bureau d accueil,Non-Nee,Non-Nee,Heures d ouverture du Château,50.115738008225,5.09175866148
16189.0,Appareil fixe-Vast apparaat,Industrielaan,21.0,2250.0,Olen,Antwerpen,EHBO-lokaal achteraan op gelijkvloers,Non-Nee,Non-Nee,06u00 - 22u00,51.149315224564,4.878099758587
16192.0,Appareil fixe-Vast apparaat,Koningin Astridlaan ,,2800.0,Mechelen,Antwerpen,"1ste verdieping (tandartspraktijk), aan de inkom",Oui-Ja,Non-Nee,tandartspraktijk is geopend van 09-17u ,51.024694058339,4.470443317238
16193.0,Appareil fixe-Vast apparaat,Parklaan,86.0,8200.0,Brugge,West-Vlaanderen,in de tandartspraktijk op de gelijkvloers,Oui-Ja,Non-Nee,tijdens de openingsuren van de praktijk (meestal 09-17u),51.183656510517,3.216706636928
16194.0,Appareil fixe-Vast apparaat,Marktplein,18.0,3940.0,Hechtel-Eksel ,Limburg,tandartspraktijk - gelijkvloers,Oui-Ja,Non-Nee,tijdens de openingsuren van de praktijk (meestal 09-17u),51.146271126879,5.386530247231
16195.0,Appareil fixe-Vast apparaat,Smeetsstraat,1.0,3640.0,Molenbeersel,Limburg,tandartspraktijk - gelijkvloers,Oui-Ja,Non-Nee,tijdens openingsuren van de praktijk (meestal 09-17u),51.170034576752,5.737404760782
10547.0,Appareil fixe-Vast apparaat,Culliganlaan,,1831.0,Diegem,Vlaams-Brabant,9de verdiep Fujitsu EHBO room,Non-Nee,Non-Nee,Tijdens de werkuren van Fujitsu,50.885694503506,4.450756586642
10548.0,Appareil fixe-Vast apparaat,culliganlaan,,1831.0,Diegem,Vlaams-Brabant,9de Verdiep omgeving onthaal,Non-Nee,Non-Nee,Tijdens de werkuren van Fujitsu,50.885694503506,4.450756586642
10549.0,Appareil fixe-Vast apparaat,Square Marie Curie ,50.0,1070.0,Anderlecht,Bruxelles-Brussel,Gelijkvloers Technische ruimte Fujitsu,Non-Nee,Non-Nee,Tijdens de werkuren van Fujitsu,50.822224109816,4.285152612387
13205.0,Appareil fixe-Vast apparaat,Steenweg op Nieuwrode,43.0,3111.0,WEZEMAAL,Vlaams-Brabant,"Buitengevel, naast ingang school",Oui-Ja,,,50.947119412453,4.759190224465
16196.0,Appareil fixe-Vast apparaat,Vlamingenstraat,83.0,3000.0,LEUVEN,Vlaams-Brabant,C01 inkomhall,Oui-Ja,,,50.874268771556,4.701824982046
16197.0,Appareil fixe-Vast apparaat,Tervuursevest,101.0,3001.0,HEVERLEE,Vlaams-Brabant,Gebouw 433.01 in de inkomhal,Oui-Ja,,,50.869485889966,4.693205619554
16198.0,Appareil fixe-Vast apparaat,Tervuursevest,143.0,3001.0,HEVERLEE,Vlaams-Brabant,Links van de lift,Oui-Ja,,,50.870703864317,4.690149158561
13206.0,Appareil fixe-Vast apparaat,Kasteelpark Arenberg,30.0,3001.0,HEVERLEE,Vlaams-Brabant,Gebouw 331.20 in lokaal 31,Oui-Ja,,,50.864486587636,4.687812870689
16199.0,Appareil fixe-Vast apparaat,Lagaeplein,5.0,8501.0,HEULE,West-Vlaanderen,Mobiel toestel zwembad,Non-Nee,,,50.845153518415,3.235811005922
13207.0,Appareil fixe-Vast apparaat,Sluizenstraat,101.0,2900.0,SCHOTEN,Antwerpen,Inkom expeditie,Oui-Ja,,,51.246008230953,4.505503123862
16200.0,Appareil fixe-Vast apparaat,Kattenhagenstraat,,2460.0,Kasterlee,Antwerpen,kleedkamer heren,Oui-Ja,Non-Nee,18.00-24.00,51.219583785956,4.904255759107
16201.0,Appareil fixe-Vast apparaat,Hollestraat,78.0,3078.0,Everberg,Vlaams-Brabant,"Gebouw A, in het bureel",Oui-Ja,,,50.869092946345,4.578749474408
13208.0,Appareil fixe-Vast apparaat,Rue Sainte-Bernadette,,6987.0,BEFFE,Luxembourg,Inkom Receptie buitenkast,Oui-Ja,,,50.205682917519,5.540976632848
13209.0,Appareil fixe-Vast apparaat,Floraliënlaan ,,9000.0,GENT,Oost-Vlaanderen,"4é verdieping, in de hall.",Oui-Ja,,,51.038891836619,3.718126693467
13210.0,Appareil fixe-Vast apparaat,Naamsestraat,69.0,3000.0,LEUVEN,Vlaams-Brabant,In de hall van de Bib.,Oui-Ja,,,50.874913549458,4.70044213566
13211.0,Appareil fixe-Vast apparaat,Herestraat,49.0,3000.0,LEUVEN,Vlaams-Brabant,In de inkomhal.,Oui-Ja,,,50.879342463277,4.671627499476
14296.0,Appareil fixe-Vast apparaat,Agoralaan ,,3590.0,DIEPENBEEK,Limburg,E-blok,Oui-Ja,,,50.928153460623,5.38663339167
14294.0,Appareil fixe-Vast apparaat,Agoralaan z/n,,3590.0,DIEPENBEEK,Limburg,inkom R blok,Oui-Ja,,,50.928153460623,5.38663339167
13212.0,Appareil fixe-Vast apparaat,Europark-noord,32.0,9100.0,Nieuwkerken-Waas,Oost-Vlaanderen,Inkom,Oui-Ja,,,51.168301450633,4.165731363076
14293.0,Appareil fixe-Vast apparaat,Agoralaan z/n,,3590.0,DIEPENBEEK,Limburg,gang A blok,Oui-Ja,,,50.928153460623,5.38663339167
13191.0,Appareil fixe-Vast apparaat,Donksesteenweg,162.0,2930.0,BRASSCHAAT,Antwerpen,Inkom op afspraak 0473/66 56 57,Non-Nee,,,51.283113617116,4.463207705162
13192.0,Appareil fixe-Vast apparaat,Oudeleeuwenrui,8.0,2000.0,ANTWERPEN,Antwerpen,Inkom 2e verdieping,Oui-Ja,,,51.226655673807,4.405779430832
13193.0,Appareil fixe-Vast apparaat,Rue du Cloître,1.0,7911.0,Frasnes-Les-Anvaing,Hainaut,Inkom,Oui-Ja,,,50.668535083844,3.616786191061
13195.0,Appareil fixe-Vast apparaat,diksmuidse heerweg,47.0,8200.0,SINT-ANDRIES,West-Vlaanderen,Buitenkast,Oui-Ja,,,51.200064882264,3.201198607311
13196.0,Appareil fixe-Vast apparaat,Bukenstraat,22.0,1910.0,KAMPENHOUT,Vlaams-Brabant,Buitenkast trefpunt buken,Oui-Ja,,,50.936839972128,4.617498677511
13197.0,Appareil fixe-Vast apparaat,Torfbroeklaan,25.0,1910.0,KAMPENHOUT,Vlaams-Brabant,Buitenkast sporthal berg,Oui-Ja,,,50.929749384955,4.536695035424
13198.0,Appareil fixe-Vast apparaat,Zeypestraat,26.0,1910.0,KAMPENHOUT,Vlaams-Brabant,Buitenkast Sporthal Kampenhout,Oui-Ja,,,50.946519142458,4.563041201124
13199.0,Appareil fixe-Vast apparaat,Aarschotsebaan,128.0,1910.0,KAMPENHOUT,Vlaams-Brabant,Buitenkast voorkant park van relst,Oui-Ja,,,50.945705804483,4.586074000497
13200.0,Appareil fixe-Vast apparaat,Brouwerijstraat,6.0,1910.0,KAMPENHOUT,Vlaams-Brabant,Buitenkast Parochiezaal pax,Oui-Ja,,,50.943760197118,4.550436746585
13201.0,Appareil fixe-Vast apparaat,Bogaertstraat,2.0,1910.0,KAMPENHOUT,Vlaams-Brabant,Buitenkast inkom parochie zaal ,Oui-Ja,,,50.919218697082,4.565252011905
13190.0,Appareil fixe-Vast apparaat,Spinsterstraat,117.0,9600.0,RONSE,Oost-Vlaanderen,Inkom tennis,Oui-Ja,,,50.750179893878,3.587496701071
16202.0,Appareil fixe-Vast apparaat,Nijverheidslaan,15.0,8580.0,AVELGEM,West-Vlaanderen,Buitenkast inkom,Oui-Ja,,,50.759709864277,3.446817371737
12601.0,Appareil fixe-Vast apparaat,Boulevard Andre Delvaux,15.0,7000.0,MONS,Hainaut,Inkom Verdieping 0,Oui-Ja,,,50.460635978779,3.933269112446
12602.0,Appareil fixe-Vast apparaat,Oude Heerstraat,11.0,3940.0,HECHTEL,Limburg,Buitenkast inkom,Oui-Ja,,,51.128876624223,5.381345956298
12603.0,Appareil fixe-Vast apparaat,Willem De Croylaan ,,3001.0,HEVERLEE,Vlaams-Brabant,"Gebouw 339/20 ,centrale dispatch, aan het onthaal",Oui-Ja,,,50.857715180642,4.679413259174
12604.0,Appareil fixe-Vast apparaat,Korte Nieuwstraat,33.0,2000.0,ANTWERPEN,Antwerpen,Bij ingang Aula CAR 0.05  (tel 0492/151830),Non-Nee,,,51.220488981912,4.404649131188
12605.0,Appareil fixe-Vast apparaat,Sint-Jacobsmarkt ,,2000.0,ANTWERPEN,Antwerpen,In de inkomhal  (tel 0492/151830),Non-Nee,,,51.220139215822,4.413342112959
12598.0,Appareil fixe-Vast apparaat,Alleé des Coquelicots,7.0,1070.0,ANDERLECHT,Bruxelles-Brussel,"1é verdiep, ingang sporthal 1.03",Oui-Ja,,,50.816925405905,4.26144833875
12596.0,Appareil fixe-Vast apparaat,Antwerpsesteenweg,447.0,2850.0,BOOM,Antwerpen,Buitengevel zijkant v/h gebouw bij de afvalcontainers,Oui-Ja,,,51.103044646374,4.367521910168
4515.0,Appareil fixe-Vast apparaat,Botermarkt,2.0,8800.0,BEVEREN,Oost-Vlaanderen,Aan dienst ingang-buiten,Oui-Ja,,,50.944424295306,3.125034683908
4513.0,Appareil fixe-Vast apparaat,Diksmuidsesteenweg,396.0,8800.0,ROESELARE,West-Vlaanderen,Inkom sporthal,Oui-Ja,,,50.951459561918,3.103935505778
16203.0,Appareil fixe-Vast apparaat,Ottergemsesteenweg zuid,808.0,9000.0,GENT,Oost-Vlaanderen,Inkom rechts Ghelamco Arena 1e verdieping,Oui-Ja,,,51.015595747631,3.7332202139
16204.0,Appareil fixe-Vast apparaat,Paviljoenstraat,20.0,2440.0,GEEL,Antwerpen,Buitenkast inkom,Oui-Ja,,,51.200297480077,4.978569105723
6154.0,Appareil fixe-Vast apparaat,Leuvensesteenweg,118.0,1910.0,KAMPENHOUT,Vlaams-Brabant,inkom ehbo lokaal,Oui-Ja,,,50.94863548919,4.603189762963
16205.0,Appareil fixe-Vast apparaat,Uitbreidingstraat,80.0,2600.0,BERCHEM,Antwerpen,4de verdiep  - gang bij onthaal,Oui-Ja,,,51.192683694508,4.417096844137
13172.0,Appareil fixe-Vast apparaat,Uitbreidingstraat,80.0,2600.0,BERCHEM,Antwerpen,Gelijkvloers - logistics in de CDS ruimte,Oui-Ja,,,51.192683694508,4.417096844137
13173.0,Appareil fixe-Vast apparaat,Boomsesteenweg,37.0,2526.0,SCHELLE,Antwerpen,Inkom rechts,Oui-Ja,,,51.119128681011,4.37330377439
13160.0,Appareil fixe-Vast apparaat,Sint-Martens-Latemlaan,,8500.0,KORTRIJK,West-Vlaanderen,"The Penta ,gebouw P,naast het onthaal",Oui-Ja,,,50.823606553946,3.249310286237
16206.0,Appareil fixe-Vast apparaat,Steenweg op Antwerpen,26.0,2300.0,TURNHOUT,Antwerpen,leveren locatie???,Oui-Ja,,,51.320341169518,4.92380652806
13162.0,Appareil fixe-Vast apparaat,Stuypenberg,13.0,9406.0,OUTER,Oost-Vlaanderen,Totem inkom,Oui-Ja,,,50.863862554945,3.981443990013
13163.0,Appareil fixe-Vast apparaat,Industrielaan,10.0,9990.0,MALDEGEM,Oost-Vlaanderen,Inkom,Oui-Ja,,,51.197961695119,3.466809803372
16207.0,Appareil fixe-Vast apparaat,Petite Rue,4.0,6000.0,CHARLEROI,Hainaut,onthaal,Oui-Ja,,,50.408151596975,4.441020053085
3717.0,Appareil fixe-Vast apparaat,Rue des Anglais ,,4000.0,LUIK,Liège,Aan Polyvalente Zaal,Oui-Ja,,,50.647808170858,5.568239266973
3714.0,Appareil fixe-Vast apparaat,Avenue des Guêrites,,7000.0,MONS,Hainaut,Aan het onthaal,Oui-Ja,,,50.449518555877,3.960233374525
16209.0,Appareil fixe-Vast apparaat,Rue Joseph Misson,48.0,5170.0,PROFONDEVILLE,Namur,Bloc Sanitaire,Non-Nee,Non-Nee,Lors de la présence des membres sur le terrain ou se trouve l appareil,50.378258281471,4.786501270831
15627.0,Appareil fixe-Vast apparaat,Hekkenstraat,,9308.0,Hofstade,Oost-Vlaanderen,Gelijkvloers,Non-Nee,Oui-Ja,,50.965814661935,4.043204365283
16210.0,Appareil fixe-Vast apparaat,Avenue Jean Mermoz,,6041.0,Gosselies,Brabant Wallon,Gelijkvloers,Non-Nee,Oui-Ja,,50.476287863111,4.472670982957
16211.0,Appareil fixe-Vast apparaat,Scheldeweg,8.0,2850.0,Boom,Antwerpen,Inkom,Non-Nee,Oui-Ja,,51.098061269661,4.362100243737
16212.0,Appareil fixe-Vast apparaat,Sint-Lambertusstraat,14.0,3730.0,Hoeselt,Limburg,Tegen voorgevel kerkgebouw,Oui-Ja,Oui-Ja,,50.827652188403,5.492205762068
16213.0,Appareil fixe-Vast apparaat,Polderbos ,3.0,9840.0,De Pinte,Oost-Vlaanderen,Ingang clubhuis TCDP,Oui-Ja,Oui-Ja,,50.991138318084,3.642611086202
16214.0,Appareil fixe-Vast apparaat,Gouverneur Verwilghensingel ,,3500.0,Hasselt,Limburg,Op het 3e verdiep van het gebouw in de centrale speelhal voor bezoekers.,Oui-Ja,Non-Nee,dagelijks tussen 10h en 20h. Vanaf september op maandag gesloten.,50.937035620838,5.357519445141
16217.0,Appareil fixe-Vast apparaat,Route de Liers ,121.0,4041.0,Milmort ,Liège,Local infirmerie ,Oui-Ja,Non-Nee,,50.688671460857,5.584572705489
16218.0,Appareil fixe-Vast apparaat,Route de Liers,121.0,4041.0,Milomort ,Liège,Cabine haute tension ,Oui-Ja,Non-Nee,,50.68945752452,5.57917054997
16219.0,Appareil fixe-Vast apparaat,Avenue de l astronomie  ,14.0,1210.0,Saint-Josse,Bruxelles-Brussel,RDC réception de la Tour Astro 14,Oui-Ja,Non-Nee,ouvert de 8H - 18 H du lundi au vendredi ; fermée les samedi et dimanche au public,50.8505496,4.3694905
10368.0,Appareil fixe-Vast apparaat,Avenue de l astronomie ,14.0,1210.0,SAINT JOSSE,Bruxelles-Brussel,"étage +4, réfectoire de l espace cantine ",Oui-Ja,Non-Nee,"tous les jours de 8h à 18H sauf les samedis, dimanches et jours fériés",50.8505496,4.3694905
8037.0,Appareil fixe-Vast apparaat,avenue de l Astronomie ,14.0,1210.0,SAINT JOSSE,Bruxelles-Brussel,+7 Maison des enfants ,Oui-Ja,Non-Nee,"du lundi au vendredi de 7H à 18H, fermée les samedis, dimanches et jours fériés",50.8505496,4.3694905
8038.0,Appareil fixe-Vast apparaat,avenue de l Astronomie ,14.0,1210.0,SAINT JOSSE,Bruxelles-Brussel,ETAGE +15,Oui-Ja,Non-Nee,"accessible de 8H à 18H du lundi au vendredi, fermé les samedis, dimanches et jours fériés",50.8505496,4.3694905
10359.0,Appareil fixe-Vast apparaat,boulevard d Anvers ,26.0,1000.0,Bruxelles,Bruxelles-Brussel,Accueil antenne Actiris,Oui-Ja,Non-Nee,"De 9H00 à 11H59 et de 14H00 à 15H59 du lundi au vendredi, fermé au public le jeudi matin, fermée les samedis, dimanches et jours férié ; horaires susceptibles d être modifiées",50.856890906979,4.351654799819
10395.0,Appareil fixe-Vast apparaat,"Rue de Jerusalem,",46.0,1030.0,Schaerbeek,Bruxelles-Brussel,accueil,Oui-Ja,Non-Nee,"du lundi au vendredi de 8H30 à 12H30 et de 13H30 à 16H, fermé le jeudi matin, fermé les samedis et dimanches et jours fériés ; horaires susceptibles d être modifiées",50.866040760123,4.379398815511
10367.0,Appareil fixe-Vast apparaat,boulevard Louis Schmidt,29.0,1040.0,Etterbeek,Bruxelles-Brussel,derrière l accueil,Oui-Ja,Non-Nee,"du lundi au vendredi de 8H30 à 12H30 et de 13H30 à 16H, fermé le jeudi matin, fermé les samedis, dimanches et jours férié ; horaires susceptibles d être modifiéess ",50.827017510695,4.399407424219
3718.0,Appareil fixe-Vast apparaat,Chaussee de Liege,620.0,5100.0,JAMBES,Namur,Lokaal naast wachtruimte,Oui-Ja,,,50.463420734957,4.906359093686
3732.0,Appareil fixe-Vast apparaat,Kruidtuinlaan,,1000.0,BRUSSEL,Bruxelles-Brussel,Financien tower verdiep -1 Pacheco zaal,Oui-Ja,,,50.854407557433,4.360926152528
3731.0,Appareil fixe-Vast apparaat,Kruidtuinlaan ,,1000.0,BRUSSEL,Bruxelles-Brussel,Financien Tower -1 Pacheco zaal,Oui-Ja,,,50.854407557433,4.360926152528
10357.0,Appareil fixe-Vast apparaat,rue de la source,15.0,1060.0,SAINT-GILLES,Bruxelles-Brussel,face à l accueil du RDC,Oui-Ja,Non-Nee,"du lundi au vendredi de 8H30 à 12H30 et de 13H30 à 16H, fermé le jeudi matin, fermé les samedis, dimanches et jours férié ; horaires susceptibles d être modifiées",50.831582504712,4.350254602893
3736.0,Appareil fixe-Vast apparaat,Kruidtuinlaan ,,1000.0,BRUSSEL,Bruxelles-Brussel,Verdiep -2 EHBO Lokaal,Oui-Ja,,,50.854407557433,4.360926152528
10360.0,Appareil fixe-Vast apparaat,rue Vandenboogaerde,91.0,1080.0,Molenbeek,Bruxelles-Brussel,accueil,Oui-Ja,Non-Nee,"du lundi au vendredi de 8H30 à 12H30 et de 13H30 à 16H, fermé le jeudi matin, fermé les samedis, dimanches et jours fériés ; horaires susceptibles d être modifiées",50.91947,4.9476
10361.0,Appareil fixe-Vast apparaat,chaussée de Gand,1154.0,1082.0,Berchem-Sainte-Agathe,Bruxelles-Brussel,bureau,Oui-Ja,Non-Nee,"du lundi au vendredi de 8H30 à 12H30 et de 13H30 à 16H, fermé le jeudi matin, fermé les samedis, dimanches et jours fériés ; horaires susceptibles d être modifiés",50.863898722857,4.297768298675
3735.0,Appareil fixe-Vast apparaat,Kruidtuinlaan ,,1000.0,BRUSSEL,Bruxelles-Brussel,verdiep -2 EHBO Lokaal Financien gebouw,Oui-Ja,,,50.854407557433,4.360926152528
3722.0,Appareil fixe-Vast apparaat,Koningin Fabiolalaan,116.0,9000.0,GENT,Oost-Vlaanderen,naast het onthaal,Oui-Ja,,,51.039524782002,3.699560418585
3713.0,Appareil fixe-Vast apparaat,Koning Albert I-laan,,8200.0,SINT-ANDRIES,West-Vlaanderen,In de Administratief Ruimte,Oui-Ja,,,51.202550479579,3.218236132039
10362.0,Appareil fixe-Vast apparaat,place de la reine Paola,11.0,1083.0,Ganshoren,Bruxelles-Brussel,bureau gauche,Oui-Ja,Non-Nee,"du lundi au vendredi de 8H30 à 12H30 et de 13H30 à 16H, fermé le jeudi matin, fermé les samedis, dimanches et jours fériés ; horaires susceptibles d être modifiés",50.875293920224,4.301127178735
10396.0,Appareil fixe-Vast apparaat,rue de Genève,175.0,1140.0,Evere,Bruxelles-Brussel,3e étage,Oui-Ja,Non-Nee,"du lundi au vendredi de 8H30 à 12H30 et de 13H30 à 16H, fermé le jeudi matin, fermé les samedis, dimanches et jours fériés ; horaires susceptibles d être modifiés",50.857720589665,4.407873397883
3719.0,Appareil fixe-Vast apparaat,Voorstraat,43.0,3500.0,HASSELT,Limburg,Blok A ingang naast Keuken,Oui-Ja,,,50.931053189994,5.357615531123
13164.0,Appareil fixe-Vast apparaat,Entrepotplaats ,,2000.0,ANTWERPEN,Antwerpen,1e verdiep in de keuken,Oui-Ja,,,51.227613358635,4.411640708133
10366.0,Appareil fixe-Vast apparaat,avenue Charles Thielemans,93.0,1150.0,Woluwe-Saint-Pierre,Bruxelles-Brussel,accueil commune de droite,Oui-Ja,Non-Nee,"du lundi au vendredi de 8H30 à 12H30 et de 13H30 à 16H, fermé le jeudi matin, fermé les samedis, dimanches et jours fériés ; horaires susceptibles d être modifiés",50.837263884413,4.427112212604
13159.0,Appareil fixe-Vast apparaat,Kerkstraat ,,2060.0,ANTWERPEN,Antwerpen,In gang naar sporthal. (Op afpraak 0472/290666),Non-Nee,,,51.218033326986,4.429166584338
10365.0,Appareil fixe-Vast apparaat,rue du Pinson,127.0,1170.0,Wartermael-Boitsfort,Bruxelles-Brussel,self zone,Oui-Ja,Non-Nee,"du lundi au vendredi de 8H30 à 12H30 et de 13H30 à 16H, fermé le jeudi matin, fermé les samedis, dimanches et jours fériés ; horaires susceptibles d être modifiés",50.800401238166,4.410354273585
13157.0,Appareil fixe-Vast apparaat,Blauwvoetlaan,2.0,8450.0,BREDENE,West-Vlaanderen,Buitenkast Inkom,Oui-Ja,,,51.237449385802,2.961438038834
13154.0,Appareil fixe-Vast apparaat,Bourgetlaan,30.0,1140.0,EVERE,Bruxelles-Brussel,Oud NAVO Gebouw inkom Op afspraak,Non-Nee,,,50.876960939701,4.41762216203
13155.0,Appareil fixe-Vast apparaat,Bourgetlaan,30.0,1140.0,EVERE,Bruxelles-Brussel,Oud navo gebouw lange gang op afspraak,Non-Nee,,,50.876960939701,4.41762216203
13156.0,Appareil fixe-Vast apparaat,Bourgetlaan,30.0,1140.0,EVERE,Bruxelles-Brussel,Inkom op afspraak,Non-Nee,,,50.876960939701,4.41762216203
